[
	{
		"city" : "Parari",
		"admin_name" : "Paraíba",
		"lng" : -36.669177097685946,
		"lat" : -7.326730201229077
	},
	{
		"city" : "Itabi",
		"admin_name" : "Sergipe",
		"lng" : -37.143852297972671,
		"lat" : -10.105879594953386
	},
	{
		"city" : "Itaporanga D'Ajuda",
		"admin_name" : "Sergipe",
		"lng" : -37.318255355244524,
		"lat" : -11.057587748360952
	},
	{
		"city" : "Japaratuba",
		"admin_name" : "Sergipe",
		"lng" : -36.902989564725715,
		"lat" : -10.553283255818883
	},
	{
		"city" : "Japoatã",
		"admin_name" : "Sergipe",
		"lng" : -36.788227605685904,
		"lat" : -10.436621774466198
	},
	{
		"city" : "Lagarto",
		"admin_name" : "Sergipe",
		"lng" : -37.661212186475034,
		"lat" : -10.825310201991618
	},
	{
		"city" : "Laranjeiras",
		"admin_name" : "Sergipe",
		"lng" : -37.186167250757762,
		"lat" : -10.804542095179377
	},
	{
		"city" : "Macambira",
		"admin_name" : "Sergipe",
		"lng" : -37.596847041386056,
		"lat" : -10.660049215245069
	},
	{
		"city" : "Milagres",
		"admin_name" : "Bahia",
		"lng" : -39.797586156024408,
		"lat" : -12.899945978051395
	},
	{
		"city" : "Mirangaba",
		"admin_name" : "Bahia",
		"lng" : -40.714508798687326,
		"lat" : -10.776984993550322
	},
	{
		"city" : "Mirante",
		"admin_name" : "Bahia",
		"lng" : -40.764087451866125,
		"lat" : -14.167820719532607
	},
	{
		"city" : "Monte Santo",
		"admin_name" : "Bahia",
		"lng" : -39.454202031816415,
		"lat" : -10.382987629481379
	},
	{
		"city" : "Morpará",
		"admin_name" : "Bahia",
		"lng" : -43.039818301488367,
		"lat" : -11.750790159902667
	},
	{
		"city" : "Morro do Chapéu",
		"admin_name" : "Bahia",
		"lng" : -41.167059727435550,
		"lat" : -11.464874981701914
	},
	{
		"city" : "Mortugaba",
		"admin_name" : "Bahia",
		"lng" : -42.320291451552848,
		"lat" : -14.972641235060257
	},
	{
		"city" : "Mucugê",
		"admin_name" : "Bahia",
		"lng" : -41.474908424328859,
		"lat" : -13.065098770156837
	},
	{
		"city" : "Mucuri",
		"admin_name" : "Bahia",
		"lng" : -39.867165546853798,
		"lat" : -18.059164602670201
	},
	{
		"city" : "Nazaré",
		"admin_name" : "Bahia",
		"lng" : -38.980867163225156,
		"lat" : -12.953683483300509
	},
	{
		"city" : "Nilo Peçanha",
		"admin_name" : "Bahia",
		"lng" : -39.173884750900044,
		"lat" : -13.660054674033312
	},
	{
		"city" : "Nordestina",
		"admin_name" : "Bahia",
		"lng" : -39.451410821086114,
		"lat" : -10.873093591494527
	},
	{
		"city" : "Nova Canaã",
		"admin_name" : "Bahia",
		"lng" : -40.180328361048801,
		"lat" : -14.857517964891647
	},
	{
		"city" : "Paramirim",
		"admin_name" : "Bahia",
		"lng" : -42.240359382699609,
		"lat" : -13.519656482943331
	},
	{
		"city" : "Paratinga",
		"admin_name" : "Bahia",
		"lng" : -43.064445134597726,
		"lat" : -12.690718549692921
	},
	{
		"city" : "Paripiranga",
		"admin_name" : "Bahia",
		"lng" : -37.900818689395329,
		"lat" : -10.616712777814538
	},
	{
		"city" : "Pau Brasil",
		"admin_name" : "Bahia",
		"lng" : -39.690474359602831,
		"lat" : -15.468284842825460
	},
	{
		"city" : "Paulo Afonso",
		"admin_name" : "Bahia",
		"lng" : -38.293545670836039,
		"lat" : -9.539588232166293
	},
	{
		"city" : "Pé de Serra",
		"admin_name" : "Bahia",
		"lng" : -39.609677307147244,
		"lat" : -11.872035356306242
	},
	{
		"city" : "Pedrão",
		"admin_name" : "Bahia",
		"lng" : -38.640847826345798,
		"lat" : -12.129678370621976
	},
	{
		"city" : "São Gonçalo",
		"admin_name" : "Rio de Janeiro",
		"lng" : -43.006368989360489,
		"lat" : -22.754375789740628
	},
	{
		"city" : "Rinópolis",
		"admin_name" : "São Paulo",
		"lng" : -50.717418891782245,
		"lat" : -21.681162391014961
	},
	{
		"city" : "Três Rios",
		"admin_name" : "Rio de Janeiro",
		"lng" : -43.112763963872432,
		"lat" : -22.124308058934584
	},
	{
		"city" : "Valença",
		"admin_name" : "Rio de Janeiro",
		"lng" : -43.857937404961334,
		"lat" : -22.234701662879711
	},
	{
		"city" : "Varre-Sai",
		"admin_name" : "Rio de Janeiro",
		"lng" : -41.829709666321847,
		"lat" : -20.892926536482001
	},
	{
		"city" : "Vassouras",
		"admin_name" : "Rio de Janeiro",
		"lng" : -43.569780388889065,
		"lat" : -22.358586116147769
	},
	{
		"city" : "Volta Redonda",
		"admin_name" : "Rio de Janeiro",
		"lng" : -44.068560152099494,
		"lat" : -22.430607726055349
	},
	{
		"city" : "Adamantina",
		"admin_name" : "São Paulo",
		"lng" : -51.056802358799260,
		"lat" : -21.576682209628903
	},
	{
		"city" : "Adolfo",
		"admin_name" : "São Paulo",
		"lng" : -49.653283441317804,
		"lat" : -21.288685099046745
	},
	{
		"city" : "Aguaí",
		"admin_name" : "São Paulo",
		"lng" : -47.040319896640064,
		"lat" : -22.049956302901339
	},
	{
		"city" : "Águas da Prata",
		"admin_name" : "São Paulo",
		"lng" : -46.691591971775509,
		"lat" : -21.913807879620236
	},
	{
		"city" : "Rio Claro",
		"admin_name" : "São Paulo",
		"lng" : -47.613120082066544,
		"lat" : -22.373710571203230
	},
	{
		"city" : "Rio das Pedras",
		"admin_name" : "São Paulo",
		"lng" : -47.598391416185308,
		"lat" : -22.850319735188645
	},
	{
		"city" : "Rio Grande da Serra",
		"admin_name" : "São Paulo",
		"lng" : -46.379456926053820,
		"lat" : -23.737858460614873
	},
	{
		"city" : "Riolândia",
		"admin_name" : "São Paulo",
		"lng" : -49.709156933727002,
		"lat" : -20.023507015217870
	},
	{
		"city" : "Salto de Pirapora",
		"admin_name" : "São Paulo",
		"lng" : -47.567779403588816,
		"lat" : -23.666822292704719
	},
	{
		"city" : "Vinhedo",
		"admin_name" : "São Paulo",
		"lng" : -46.959965860649447,
		"lat" : -23.045037943400779
	},
	{
		"city" : "Santa Cruz do Rio Pardo",
		"admin_name" : "São Paulo",
		"lng" : -49.568954354224232,
		"lat" : -22.809313146952540
	},
	{
		"city" : "Chapada dos Guimarães",
		"admin_name" : "Mato Grosso",
		"lng" : -55.552517670590291,
		"lat" : -15.118868119603917
	},
	{
		"city" : "Cláudia",
		"admin_name" : "Mato Grosso",
		"lng" : -55.048738974325396,
		"lat" : -11.447527383989868
	},
	{
		"city" : "Cocalinho",
		"admin_name" : "Mato Grosso",
		"lng" : -51.147794318806675,
		"lat" : -13.868985086093566
	},
	{
		"city" : "Colíder",
		"admin_name" : "Mato Grosso",
		"lng" : -55.469286103782110,
		"lat" : -10.631236354406486
	},
	{
		"city" : "Colniza",
		"admin_name" : "Mato Grosso",
		"lng" : -60.304158067289684,
		"lat" : -9.292140974326305
	},
	{
		"city" : "Comodoro",
		"admin_name" : "Mato Grosso",
		"lng" : -59.750679801956224,
		"lat" : -13.193522630666775
	},
	{
		"city" : "Confresa",
		"admin_name" : "Mato Grosso",
		"lng" : -51.698057480592325,
		"lat" : -10.403274081259084
	},
	{
		"city" : "Conquista D'Oeste",
		"admin_name" : "Mato Grosso",
		"lng" : -59.331530509152493,
		"lat" : -14.636193702422641
	},
	{
		"city" : "Cotriguaçu",
		"admin_name" : "Mato Grosso",
		"lng" : -58.676545758040611,
		"lat" : -9.537361401578224
	},
	{
		"city" : "Cuiabá",
		"admin_name" : "Mato Grosso",
		"lng" : -55.954470830987717,
		"lat" : -15.452610449972575
	},
	{
		"city" : "Curvelândia",
		"admin_name" : "Mato Grosso",
		"lng" : -57.877533559039748,
		"lat" : -15.615799162648575
	},
	{
		"city" : "Denise",
		"admin_name" : "Mato Grosso",
		"lng" : -56.961161156116965,
		"lat" : -14.729882046193994
	},
	{
		"city" : "Diamantino",
		"admin_name" : "Mato Grosso",
		"lng" : -56.797963120440599,
		"lat" : -14.095557529465317
	},
	{
		"city" : "Dom Aquino",
		"admin_name" : "Mato Grosso",
		"lng" : -54.773727349720424,
		"lat" : -15.657158992035592
	},
	{
		"city" : "Feliz Natal",
		"admin_name" : "Mato Grosso",
		"lng" : -54.184157268896264,
		"lat" : -11.932164095248975
	},
	{
		"city" : "Figueirópolis D'Oeste",
		"admin_name" : "Mato Grosso",
		"lng" : -58.702897117716716,
		"lat" : -15.527199820391719
	},
	{
		"city" : "Gaúcha do Norte",
		"admin_name" : "Mato Grosso",
		"lng" : -53.455621298271595,
		"lat" : -12.995651021992122
	},
	{
		"city" : "General Carneiro",
		"admin_name" : "Mato Grosso",
		"lng" : -53.390468322574144,
		"lat" : -15.556976624955936
	},
	{
		"city" : "Glória D'Oeste",
		"admin_name" : "Mato Grosso",
		"lng" : -58.325191907967330,
		"lat" : -15.839025498372603
	},
	{
		"city" : "Guarantã do Norte",
		"admin_name" : "Mato Grosso",
		"lng" : -54.617805282920862,
		"lat" : -9.776100206851009
	},
	{
		"city" : "Guiratinga",
		"admin_name" : "Mato Grosso",
		"lng" : -53.589361826480911,
		"lat" : -16.384032101045840
	},
	{
		"city" : "Indiavaí",
		"admin_name" : "Mato Grosso",
		"lng" : -58.597683298835818,
		"lat" : -15.335093233967987
	},
	{
		"city" : "Ipiranga do Norte",
		"admin_name" : "Mato Grosso",
		"lng" : -56.055976830517544,
		"lat" : -12.013383709522399
	},
	{
		"city" : "Itanhangá",
		"admin_name" : "Mato Grosso",
		"lng" : -56.755003373237166,
		"lat" : -12.139609879576881
	},
	{
		"city" : "Itaúba",
		"admin_name" : "Mato Grosso",
		"lng" : -55.590551434580448,
		"lat" : -11.110774881948966
	},
	{
		"city" : "Itiquira",
		"admin_name" : "Mato Grosso",
		"lng" : -54.606715456937181,
		"lat" : -17.335685187735663
	},
	{
		"city" : "Jaciara",
		"admin_name" : "Mato Grosso",
		"lng" : -55.111867542742360,
		"lat" : -15.906551753315735
	},
	{
		"city" : "Jangada",
		"admin_name" : "Mato Grosso",
		"lng" : -56.549959880510343,
		"lat" : -15.330507212472289
	},
	{
		"city" : "Jauru",
		"admin_name" : "Mato Grosso",
		"lng" : -58.868323076088039,
		"lat" : -15.310215113163967
	},
	{
		"city" : "Governador Celso Ramos",
		"admin_name" : "Santa Catarina",
		"lng" : -48.579245535331914,
		"lat" : -27.372239990878541
	},
	{
		"city" : "Juara",
		"admin_name" : "Mato Grosso",
		"lng" : -57.618720984682419,
		"lat" : -11.023698302302749
	},
	{
		"city" : "Juína",
		"admin_name" : "Mato Grosso",
		"lng" : -59.329825176647127,
		"lat" : -11.533746821637408
	},
	{
		"city" : "Juruena",
		"admin_name" : "Mato Grosso",
		"lng" : -58.591601474022347,
		"lat" : -10.363077505368187
	},
	{
		"city" : "Juscimeira",
		"admin_name" : "Mato Grosso",
		"lng" : -54.904054713186824,
		"lat" : -16.183296842135391
	},
	{
		"city" : "Grão Pará",
		"admin_name" : "Santa Catarina",
		"lng" : -49.314689813759806,
		"lat" : -28.154639187275055
	},
	{
		"city" : "Gravatal",
		"admin_name" : "Santa Catarina",
		"lng" : -49.020122536119146,
		"lat" : -28.353427959253526
	},
	{
		"city" : "Guabiruba",
		"admin_name" : "Santa Catarina",
		"lng" : -49.021273687290943,
		"lat" : -27.103259726819857
	},
	{
		"city" : "Guaraciaba",
		"admin_name" : "Santa Catarina",
		"lng" : -53.570717816674083,
		"lat" : -26.580009590071214
	},
	{
		"city" : "Guaramirim",
		"admin_name" : "Santa Catarina",
		"lng" : -48.945177993830200,
		"lat" : -26.476248754640611
	},
	{
		"city" : "Guarujá do Sul",
		"admin_name" : "Santa Catarina",
		"lng" : -53.483442370105202,
		"lat" : -26.398205966981898
	},
	{
		"city" : "Guatambú",
		"admin_name" : "Santa Catarina",
		"lng" : -52.783514448458575,
		"lat" : -27.116639406567145
	},
	{
		"city" : "Lambari D'Oeste",
		"admin_name" : "Mato Grosso",
		"lng" : -57.783582500380760,
		"lat" : -15.374638810009298
	},
	{
		"city" : "Imaruí",
		"admin_name" : "Santa Catarina",
		"lng" : -48.834969829011733,
		"lat" : -28.231058660797085
	},
	{
		"city" : "Lucas do Rio Verde",
		"admin_name" : "Mato Grosso",
		"lng" : -56.166655608413294,
		"lat" : -13.036732358786780
	},
	{
		"city" : "Luciara",
		"admin_name" : "Mato Grosso",
		"lng" : -50.942992838241821,
		"lat" : -11.014145439289127
	},
	{
		"city" : "Vila Bela da Santíssima Trindade",
		"admin_name" : "Mato Grosso",
		"lng" : -59.990077081043765,
		"lat" : -15.189498437837857
	},
	{
		"city" : "Marcelândia",
		"admin_name" : "Mato Grosso",
		"lng" : -54.053434401282729,
		"lat" : -10.885973160229883
	},
	{
		"city" : "Matupá",
		"admin_name" : "Mato Grosso",
		"lng" : -54.360030692406752,
		"lat" : -10.015289872459823
	},
	{
		"city" : "Mirassol D'Oeste",
		"admin_name" : "Mato Grosso",
		"lng" : -58.054565692791215,
		"lat" : -15.654852047057449
	},
	{
		"city" : "Nobres",
		"admin_name" : "Mato Grosso",
		"lng" : -55.811108068035729,
		"lat" : -14.379753821427322
	},
	{
		"city" : "Nortelândia",
		"admin_name" : "Mato Grosso",
		"lng" : -56.719907007545608,
		"lat" : -14.347839420616570
	},
	{
		"city" : "Nossa Senhora do Livramento",
		"admin_name" : "Mato Grosso",
		"lng" : -56.518282713483217,
		"lat" : -15.844551241104545
	},
	{
		"city" : "Nova Bandeirantes",
		"admin_name" : "Mato Grosso",
		"lng" : -58.078238567005265,
		"lat" : -9.767136973804694
	},
	{
		"city" : "Nova Nazaré",
		"admin_name" : "Mato Grosso",
		"lng" : -51.889405114249023,
		"lat" : -14.155845299314670
	},
	{
		"city" : "Nova Lacerda",
		"admin_name" : "Mato Grosso",
		"lng" : -59.770609559831293,
		"lat" : -14.300310333954240
	},
	{
		"city" : "Nova Santa Helena",
		"admin_name" : "Mato Grosso",
		"lng" : -54.905712846300446,
		"lat" : -10.918736956982210
	},
	{
		"city" : "Nova Brasilândia",
		"admin_name" : "Mato Grosso",
		"lng" : -55.046610018590023,
		"lat" : -14.787434291490550
	},
	{
		"city" : "Nova Canaã do Norte",
		"admin_name" : "Mato Grosso",
		"lng" : -56.042290881502048,
		"lat" : -10.699922597023635
	},
	{
		"city" : "Nova Mutum",
		"admin_name" : "Mato Grosso",
		"lng" : -56.104691666643852,
		"lat" : -13.629827719875342
	},
	{
		"city" : "Nova Olímpia",
		"admin_name" : "Mato Grosso",
		"lng" : -57.421866953488006,
		"lat" : -14.801998492344145
	},
	{
		"city" : "Nova Ubiratã",
		"admin_name" : "Mato Grosso",
		"lng" : -54.760287563169584,
		"lat" : -12.996047919226760
	},
	{
		"city" : "Malhada dos Bois",
		"admin_name" : "Sergipe",
		"lng" : -36.944419106592747,
		"lat" : -10.329222185327003
	},
	{
		"city" : "Malhador",
		"admin_name" : "Sergipe",
		"lng" : -37.287791875986365,
		"lat" : -10.672891064341838
	},
	{
		"city" : "Pirambu",
		"admin_name" : "Sergipe",
		"lng" : -36.805969899215810,
		"lat" : -10.653583955571621
	},
	{
		"city" : "Poço Redondo",
		"admin_name" : "Sergipe",
		"lng" : -37.711406823670622,
		"lat" : -9.851292877066836
	},
	{
		"city" : "Poço Verde",
		"admin_name" : "Sergipe",
		"lng" : -38.127623730040810,
		"lat" : -10.800890544524629
	},
	{
		"city" : "Porto da Folha",
		"admin_name" : "Sergipe",
		"lng" : -37.422376374563903,
		"lat" : -9.913997114882854
	},
	{
		"city" : "Riachuelo",
		"admin_name" : "Sergipe",
		"lng" : -37.225284902132152,
		"lat" : -10.730623413496993
	},
	{
		"city" : "Nova Xavantina",
		"admin_name" : "Mato Grosso",
		"lng" : -52.407314068185755,
		"lat" : -14.599623234157695
	},
	{
		"city" : "Novo Mundo",
		"admin_name" : "Mato Grosso",
		"lng" : -55.403477501458042,
		"lat" : -9.751137329797464
	},
	{
		"city" : "Novo Horizonte do Norte",
		"admin_name" : "Mato Grosso",
		"lng" : -57.308247166171974,
		"lat" : -11.382425123068732
	},
	{
		"city" : "Novo São Joaquim",
		"admin_name" : "Mato Grosso",
		"lng" : -53.258010936033614,
		"lat" : -15.078326731109932
	},
	{
		"city" : "Paranaíta",
		"admin_name" : "Mato Grosso",
		"lng" : -56.681944224999818,
		"lat" : -9.593308380266590
	},
	{
		"city" : "Paranatinga",
		"admin_name" : "Mato Grosso",
		"lng" : -54.108806238531749,
		"lat" : -13.678036269578577
	},
	{
		"city" : "Novo Santo Antônio",
		"admin_name" : "Mato Grosso",
		"lng" : -50.888077973550125,
		"lat" : -12.314955744301919
	},
	{
		"city" : "Cândido Mendes",
		"admin_name" : "Maranhão",
		"lng" : -45.678834545977182,
		"lat" : -1.624018446390354
	},
	{
		"city" : "Pedra Preta",
		"admin_name" : "Mato Grosso",
		"lng" : -54.244709654134518,
		"lat" : -16.802515228890421
	},
	{
		"city" : "Peixoto de Azevedo",
		"admin_name" : "Mato Grosso",
		"lng" : -53.595288536277856,
		"lat" : -10.148845616595727
	},
	{
		"city" : "Planalto da Serra",
		"admin_name" : "Mato Grosso",
		"lng" : -54.673104628817697,
		"lat" : -14.589290905971053
	},
	{
		"city" : "Poconé",
		"admin_name" : "Mato Grosso",
		"lng" : -56.944095329335035,
		"lat" : -16.782695042145260
	},
	{
		"city" : "Pontal do Araguaia",
		"admin_name" : "Mato Grosso",
		"lng" : -52.720433807530817,
		"lat" : -15.931918592196809
	},
	{
		"city" : "Ponte Branca",
		"admin_name" : "Mato Grosso",
		"lng" : -52.932918568641696,
		"lat" : -16.659856862878382
	},
	{
		"city" : "Pontes E Lacerda",
		"admin_name" : "Mato Grosso",
		"lng" : -59.458575501862072,
		"lat" : -15.517186143726995
	},
	{
		"city" : "Porto Alegre do Norte",
		"admin_name" : "Mato Grosso",
		"lng" : -51.714044544712479,
		"lat" : -10.824656310911520
	},
	{
		"city" : "Porto dos Gaúchos",
		"admin_name" : "Mato Grosso",
		"lng" : -56.747665069135770,
		"lat" : -11.734173320736984
	},
	{
		"city" : "Porto Esperidião",
		"admin_name" : "Mato Grosso",
		"lng" : -58.982380527972779,
		"lat" : -15.958085859831517
	},
	{
		"city" : "Porto Estrela",
		"admin_name" : "Mato Grosso",
		"lng" : -57.214979617262024,
		"lat" : -15.521362750030370
	},
	{
		"city" : "Amparo de São Francisco",
		"admin_name" : "Sergipe",
		"lng" : -36.921297584847004,
		"lat" : -10.166097883242461
	},
	{
		"city" : "Aquidabã",
		"admin_name" : "Sergipe",
		"lng" : -37.064145487803870,
		"lat" : -10.260812290285594
	},
	{
		"city" : "Aracaju",
		"admin_name" : "Sergipe",
		"lng" : -37.099523368759492,
		"lat" : -11.030053126616513
	},
	{
		"city" : "Poxoréu",
		"admin_name" : "Mato Grosso",
		"lng" : -54.183609562733800,
		"lat" : -15.851796510149395
	},
	{
		"city" : "Primavera do Leste",
		"admin_name" : "Mato Grosso",
		"lng" : -54.220516063113912,
		"lat" : -15.097396036613375
	},
	{
		"city" : "Querência",
		"admin_name" : "Mato Grosso",
		"lng" : -52.743194623478068,
		"lat" : -12.158215939883698
	},
	{
		"city" : "São José dos Quatro Marcos",
		"admin_name" : "Mato Grosso",
		"lng" : -58.297166130929696,
		"lat" : -15.566642355601910
	},
	{
		"city" : "Reserva do Cabaçal",
		"admin_name" : "Mato Grosso",
		"lng" : -58.458646020890868,
		"lat" : -14.929468963304167
	},
	{
		"city" : "Ribeirão Cascalheira",
		"admin_name" : "Mato Grosso",
		"lng" : -51.568534976705379,
		"lat" : -12.873840511763724
	},
	{
		"city" : "Ribeirãozinho",
		"admin_name" : "Mato Grosso",
		"lng" : -52.760197811745385,
		"lat" : -16.494145568438729
	},
	{
		"city" : "Rio Branco",
		"admin_name" : "Mato Grosso",
		"lng" : -58.154203690219035,
		"lat" : -15.270149587284713
	},
	{
		"city" : "Santa Carmem",
		"admin_name" : "Mato Grosso",
		"lng" : -54.902982689903013,
		"lat" : -11.935386770819521
	},
	{
		"city" : "Santo Afonso",
		"admin_name" : "Mato Grosso",
		"lng" : -57.344227436418322,
		"lat" : -14.450916603215665
	},
	{
		"city" : "Arauá",
		"admin_name" : "Sergipe",
		"lng" : -37.589730620651054,
		"lat" : -11.260374206328132
	},
	{
		"city" : "São José do Povo",
		"admin_name" : "Mato Grosso",
		"lng" : -54.273477823000917,
		"lat" : -16.461741242949611
	},
	{
		"city" : "São José do Rio Claro",
		"admin_name" : "Mato Grosso",
		"lng" : -56.807343525346873,
		"lat" : -13.551121137576693
	},
	{
		"city" : "São José do Xingu",
		"admin_name" : "Mato Grosso",
		"lng" : -52.617565805498046,
		"lat" : -10.696060529353064
	},
	{
		"city" : "Rondonópolis",
		"admin_name" : "Mato Grosso",
		"lng" : -54.685473431808653,
		"lat" : -16.553771733187425
	},
	{
		"city" : "Rosário Oeste",
		"admin_name" : "Mato Grosso",
		"lng" : -55.943491139483456,
		"lat" : -14.770386563391989
	},
	{
		"city" : "Santa Cruz do Xingu",
		"admin_name" : "Mato Grosso",
		"lng" : -52.543628038692184,
		"lat" : -10.065332990214699
	},
	{
		"city" : "Salto do Céu",
		"admin_name" : "Mato Grosso",
		"lng" : -58.050039503310778,
		"lat" : -15.050988723644027
	},
	{
		"city" : "Santa Rita do Trivelato",
		"admin_name" : "Mato Grosso",
		"lng" : -55.294563250919694,
		"lat" : -13.832763592429062
	},
	{
		"city" : "Santa Terezinha",
		"admin_name" : "Mato Grosso",
		"lng" : -50.792724036347806,
		"lat" : -10.333522164576662
	},
	{
		"city" : "Santo Antônio do Leste",
		"admin_name" : "Mato Grosso",
		"lng" : -53.669671559997703,
		"lat" : -14.805124004906826
	},
	{
		"city" : "Santo Antônio do Leverger",
		"admin_name" : "Mato Grosso",
		"lng" : -55.458637129465693,
		"lat" : -16.448163793901113
	},
	{
		"city" : "São Félix do Araguaia",
		"admin_name" : "Mato Grosso",
		"lng" : -52.521896687272886,
		"lat" : -11.373975984843504
	},
	{
		"city" : "Sapezal",
		"admin_name" : "Mato Grosso",
		"lng" : -58.652348042471900,
		"lat" : -13.154368763799152
	},
	{
		"city" : "Serra Nova Dourada",
		"admin_name" : "Mato Grosso",
		"lng" : -51.361786494874082,
		"lat" : -12.021966700347139
	},
	{
		"city" : "Sinop",
		"admin_name" : "Mato Grosso",
		"lng" : -55.500149933177454,
		"lat" : -11.711715159750945
	},
	{
		"city" : "Sorriso",
		"admin_name" : "Mato Grosso",
		"lng" : -55.677341340329185,
		"lat" : -12.741843157939767
	},
	{
		"city" : "Tabaporã",
		"admin_name" : "Mato Grosso",
		"lng" : -56.496559506237354,
		"lat" : -11.213225145793235
	},
	{
		"city" : "Tangará da Serra",
		"admin_name" : "Mato Grosso",
		"lng" : -58.294430559838354,
		"lat" : -14.430008514053727
	},
	{
		"city" : "Tapurah",
		"admin_name" : "Mato Grosso",
		"lng" : -56.531702790618802,
		"lat" : -12.567785942946772
	},
	{
		"city" : "Terra Nova do Norte",
		"admin_name" : "Mato Grosso",
		"lng" : -54.986773930959579,
		"lat" : -10.513282008559706
	},
	{
		"city" : "Tesouro",
		"admin_name" : "Mato Grosso",
		"lng" : -53.456999813415635,
		"lat" : -15.903728466894300
	},
	{
		"city" : "Torixoréu",
		"admin_name" : "Mato Grosso",
		"lng" : -52.889867189368061,
		"lat" : -16.294572721788256
	},
	{
		"city" : "União do Sul",
		"admin_name" : "Mato Grosso",
		"lng" : -54.315897475015831,
		"lat" : -11.526916024938091
	},
	{
		"city" : "Vale de São Domingos",
		"admin_name" : "Mato Grosso",
		"lng" : -58.963934635957088,
		"lat" : -14.968269138524729
	},
	{
		"city" : "Várzea Grande",
		"admin_name" : "Mato Grosso",
		"lng" : -56.282433671733365,
		"lat" : -15.564927153832494
	},
	{
		"city" : "Santos",
		"admin_name" : "São Paulo",
		"lng" : -46.291568267230268,
		"lat" : -23.868850304000816
	},
	{
		"city" : "São Bento do Sapucaí",
		"admin_name" : "São Paulo",
		"lng" : -45.686806457588268,
		"lat" : -22.681397313322705
	},
	{
		"city" : "São Bernardo do Campo",
		"admin_name" : "São Paulo",
		"lng" : -46.574617780016816,
		"lat" : -23.838886639106526
	},
	{
		"city" : "São Caetano do Sul",
		"admin_name" : "São Paulo",
		"lng" : -46.566062622961361,
		"lat" : -23.626140563326302
	},
	{
		"city" : "São Carlos",
		"admin_name" : "São Paulo",
		"lng" : -47.867177659383152,
		"lat" : -21.918886768969060
	},
	{
		"city" : "Vera",
		"admin_name" : "Mato Grosso",
		"lng" : -55.345820622894706,
		"lat" : -12.421776431397490
	},
	{
		"city" : "Vila Rica",
		"admin_name" : "Mato Grosso",
		"lng" : -51.404660517059142,
		"lat" : -9.980545325071843
	},
	{
		"city" : "Nova Guarita",
		"admin_name" : "Mato Grosso",
		"lng" : -55.339404823532135,
		"lat" : -10.291970371190507
	},
	{
		"city" : "Nova Marilândia",
		"admin_name" : "Mato Grosso",
		"lng" : -57.263553558037117,
		"lat" : -14.289078297558527
	},
	{
		"city" : "Nova Maringá",
		"admin_name" : "Mato Grosso",
		"lng" : -57.219823150126878,
		"lat" : -12.783071841741142
	},
	{
		"city" : "Nova Monte Verde",
		"admin_name" : "Mato Grosso",
		"lng" : -57.245050402155833,
		"lat" : -9.969957290723945
	},
	{
		"city" : "Abadiânia",
		"admin_name" : "Goiás",
		"lng" : -48.713614389125098,
		"lat" : -16.186839850262484
	},
	{
		"city" : "Acreúna",
		"admin_name" : "Goiás",
		"lng" : -50.326031847874440,
		"lat" : -17.452208804094258
	},
	{
		"city" : "Rubiataba",
		"admin_name" : "Goiás",
		"lng" : -49.876827008628133,
		"lat" : -15.181066766895308
	},
	{
		"city" : "Sanclerlândia",
		"admin_name" : "Goiás",
		"lng" : -50.372095555830391,
		"lat" : -16.282228421202113
	},
	{
		"city" : "Lagoa Alegre",
		"admin_name" : "Piauí",
		"lng" : -42.564889868961700,
		"lat" : -4.489743798294811
	},
	{
		"city" : "Matias Olímpio",
		"admin_name" : "Piauí",
		"lng" : -42.584306038797145,
		"lat" : -3.707448931008778
	},
	{
		"city" : "Sussuapara",
		"admin_name" : "Piauí",
		"lng" : -41.357412352896255,
		"lat" : -7.019068766958823
	},
	{
		"city" : "Cantanhede",
		"admin_name" : "Maranhão",
		"lng" : -44.262690312311655,
		"lat" : -3.621611604498536
	},
	{
		"city" : "São Francisco do Pará",
		"admin_name" : "Pará",
		"lng" : -47.746860669793584,
		"lat" : -1.205967082423577
	},
	{
		"city" : "São Geraldo do Araguaia",
		"admin_name" : "Pará",
		"lng" : -48.748222995581251,
		"lat" : -6.189251147692473
	},
	{
		"city" : "Cururupu",
		"admin_name" : "Maranhão",
		"lng" : -44.787916629471539,
		"lat" : -1.778322463115597
	},
	{
		"city" : "Lagoa de Pedras",
		"admin_name" : "Rio Grande do Norte",
		"lng" : -35.450835108900272,
		"lat" : -6.192435211253255
	},
	{
		"city" : "Lagoa de Velhos",
		"admin_name" : "Rio Grande do Norte",
		"lng" : -35.844003013333335,
		"lat" : -6.010968831612853
	},
	{
		"city" : "Terra Alta",
		"admin_name" : "Pará",
		"lng" : -47.848376443039392,
		"lat" : -1.002978444559345
	},
	{
		"city" : "Trairão",
		"admin_name" : "Pará",
		"lng" : -56.003467077930274,
		"lat" : -5.130225126254317
	},
	{
		"city" : "Tucumã",
		"admin_name" : "Pará",
		"lng" : -51.391385730561495,
		"lat" : -6.820196209169918
	},
	{
		"city" : "Tucuruí",
		"admin_name" : "Pará",
		"lng" : -49.916907818839391,
		"lat" : -3.832986671559368
	},
	{
		"city" : "Ulianópolis",
		"admin_name" : "Pará",
		"lng" : -47.493609105597919,
		"lat" : -3.809839840450220
	},
	{
		"city" : "Uruará",
		"admin_name" : "Pará",
		"lng" : -53.807336098538627,
		"lat" : -3.583616144262491
	},
	{
		"city" : "Mazagão",
		"admin_name" : "Amapá",
		"lng" : -51.951193333689446,
		"lat" : -0.066836624710694
	},
	{
		"city" : "Oiapoque",
		"admin_name" : "Amapá",
		"lng" : -51.904644974841283,
		"lat" : 3.089255237582520
	},
	{
		"city" : "Porto Grande",
		"admin_name" : "Amapá",
		"lng" : -51.669983214437771,
		"lat" : 0.585628440140088
	},
	{
		"city" : "Santana",
		"admin_name" : "Amapá",
		"lng" : -51.378365443845517,
		"lat" : 0.129806464451299
	},
	{
		"city" : "Tartarugalzinho",
		"admin_name" : "Amapá",
		"lng" : -50.992615555650161,
		"lat" : 1.297577101953341
	},
	{
		"city" : "Vitória do Jari",
		"admin_name" : "Amapá",
		"lng" : -52.061178474781542,
		"lat" : -0.996442322424012
	},
	{
		"city" : "Abreulândia",
		"admin_name" : "Tocantins",
		"lng" : -49.309887841213467,
		"lat" : -9.480414097347589
	},
	{
		"city" : "Bodó",
		"admin_name" : "Rio Grande do Norte",
		"lng" : -36.441743013428557,
		"lat" : -5.962905012959756
	},
	{
		"city" : "Bom Jesus",
		"admin_name" : "Rio Grande do Norte",
		"lng" : -35.590793905306953,
		"lat" : -6.000815604936285
	},
	{
		"city" : "Brejinho",
		"admin_name" : "Rio Grande do Norte",
		"lng" : -35.383587045769033,
		"lat" : -6.218173499634450
	},
	{
		"city" : "Caiçara do Norte",
		"admin_name" : "Rio Grande do Norte",
		"lng" : -36.083214593540191,
		"lat" : -5.191393956649454
	},
	{
		"city" : "Retirolândia",
		"admin_name" : "Bahia",
		"lng" : -39.416696388035938,
		"lat" : -11.503043118738896
	},
	{
		"city" : "Riachão das Neves",
		"admin_name" : "Bahia",
		"lng" : -45.217792225027843,
		"lat" : -11.623038434208745
	},
	{
		"city" : "Riachão do Jacuípe",
		"admin_name" : "Bahia",
		"lng" : -39.423474608346815,
		"lat" : -11.801010944848235
	},
	{
		"city" : "Riacho de Santana",
		"admin_name" : "Bahia",
		"lng" : -43.049693800595939,
		"lat" : -13.633176306821550
	},
	{
		"city" : "Ribeira do Amparo",
		"admin_name" : "Bahia",
		"lng" : -38.388804696098894,
		"lat" : -10.974235429852932
	},
	{
		"city" : "Ribeira do Pombal",
		"admin_name" : "Bahia",
		"lng" : -38.551265056381865,
		"lat" : -10.797553801295731
	},
	{
		"city" : "Ribeirão do Largo",
		"admin_name" : "Bahia",
		"lng" : -40.651846540006552,
		"lat" : -15.427224046002687
	},
	{
		"city" : "Rio de Contas",
		"admin_name" : "Bahia",
		"lng" : -41.740545209861217,
		"lat" : -13.587144068781138
	},
	{
		"city" : "Rio do Antônio",
		"admin_name" : "Bahia",
		"lng" : -42.084136353497158,
		"lat" : -14.310254808900140
	},
	{
		"city" : "Rio do Pires",
		"admin_name" : "Bahia",
		"lng" : -42.147711826339162,
		"lat" : -13.134755506115260
	},
	{
		"city" : "Rio Real",
		"admin_name" : "Bahia",
		"lng" : -37.916103397430824,
		"lat" : -11.545306360803366
	},
	{
		"city" : "Rodelas",
		"admin_name" : "Bahia",
		"lng" : -38.692464101434233,
		"lat" : -9.183932876064693
	},
	{
		"city" : "Ruy Barbosa",
		"admin_name" : "Bahia",
		"lng" : -40.629652158562827,
		"lat" : -12.243549305774909
	},
	{
		"city" : "Santa Terezinha",
		"admin_name" : "Bahia",
		"lng" : -39.571741249930042,
		"lat" : -12.734161894540156
	},
	{
		"city" : "Santo Amaro",
		"admin_name" : "Bahia",
		"lng" : -38.763265532875366,
		"lat" : -12.565719710661680
	},
	{
		"city" : "Santo Antônio de Jesus",
		"admin_name" : "Bahia",
		"lng" : -39.226621410579135,
		"lat" : -13.008296455766445
	},
	{
		"city" : "Santo Estêvão",
		"admin_name" : "Bahia",
		"lng" : -39.269011500135342,
		"lat" : -12.468335539732452
	},
	{
		"city" : "São Desidério",
		"admin_name" : "Bahia",
		"lng" : -45.490188636767236,
		"lat" : -12.804393371404924
	},
	{
		"city" : "São Domingos",
		"admin_name" : "Bahia",
		"lng" : -39.580388499270306,
		"lat" : -11.454355137622352
	},
	{
		"city" : "São Félix",
		"admin_name" : "Bahia",
		"lng" : -38.999026240804703,
		"lat" : -12.675042173692541
	},
	{
		"city" : "São Félix do Coribe",
		"admin_name" : "Bahia",
		"lng" : -44.029672747973294,
		"lat" : -13.551946224817371
	},
	{
		"city" : "Lajes",
		"admin_name" : "Rio Grande do Norte",
		"lng" : -36.180597065012542,
		"lat" : -5.698166912826251
	},
	{
		"city" : "Lajes Pintadas",
		"admin_name" : "Rio Grande do Norte",
		"lng" : -36.134221620078662,
		"lat" : -6.148064240580400
	},
	{
		"city" : "Aguiarnópolis",
		"admin_name" : "Tocantins",
		"lng" : -47.513386320100892,
		"lat" : -6.487652287934975
	},
	{
		"city" : "Aliança do Tocantins",
		"admin_name" : "Tocantins",
		"lng" : -48.908194437739134,
		"lat" : -11.332168540144165
	},
	{
		"city" : "Almas",
		"admin_name" : "Tocantins",
		"lng" : -47.210409800232142,
		"lat" : -11.430057252264403
	},
	{
		"city" : "Alvorada",
		"admin_name" : "Tocantins",
		"lng" : -49.112914486388931,
		"lat" : -12.408493495236067
	},
	{
		"city" : "Ananás",
		"admin_name" : "Tocantins",
		"lng" : -48.186982389817018,
		"lat" : -6.232420040349835
	},
	{
		"city" : "São Felipe",
		"admin_name" : "Bahia",
		"lng" : -39.094661669276107,
		"lat" : -12.845311772142061
	},
	{
		"city" : "São Francisco do Conde",
		"admin_name" : "Bahia",
		"lng" : -38.632044926990098,
		"lat" : -12.650808215280398
	},
	{
		"city" : "Guajará-Mirim",
		"admin_name" : "Rondônia",
		"lng" : -64.537522346181390,
		"lat" : -11.305672445965337
	},
	{
		"city" : "Jaru",
		"admin_name" : "Rondônia",
		"lng" : -62.584865579421283,
		"lat" : -10.592448063935318
	},
	{
		"city" : "Ji-Paraná",
		"admin_name" : "Rondônia",
		"lng" : -61.757252672807979,
		"lat" : -10.462220532480130
	},
	{
		"city" : "Machadinho D'Oeste",
		"admin_name" : "Rondônia",
		"lng" : -62.010379652002761,
		"lat" : -9.204091502766479
	},
	{
		"city" : "Nova Brasilândia D'Oeste",
		"admin_name" : "Rondônia",
		"lng" : -62.280237925372091,
		"lat" : -11.643119014497479
	},
	{
		"city" : "São Gabriel",
		"admin_name" : "Bahia",
		"lng" : -41.698253471606428,
		"lat" : -11.066448075222540
	},
	{
		"city" : "Buriti do Tocantins",
		"admin_name" : "Tocantins",
		"lng" : -48.138413957228209,
		"lat" : -5.337540169917476
	},
	{
		"city" : "São Gonçalo dos Campos",
		"admin_name" : "Bahia",
		"lng" : -38.941374391680512,
		"lat" : -12.417177471362233
	},
	{
		"city" : "Colinas do Tocantins",
		"admin_name" : "Tocantins",
		"lng" : -48.529858696669727,
		"lat" : -8.076184673848422
	},
	{
		"city" : "São José da Vitória",
		"admin_name" : "Bahia",
		"lng" : -39.353794924359114,
		"lat" : -15.073448274097872
	},
	{
		"city" : "São José do Jacuípe",
		"admin_name" : "Bahia",
		"lng" : -39.910341027501126,
		"lat" : -11.440049169795259
	},
	{
		"city" : "Ariquemes",
		"admin_name" : "Rondônia",
		"lng" : -62.957255222873172,
		"lat" : -9.951890006657388
	},
	{
		"city" : "Pimenta Bueno",
		"admin_name" : "Rondônia",
		"lng" : -60.830387943643515,
		"lat" : -11.894468853316365
	},
	{
		"city" : "Porto Velho",
		"admin_name" : "Rondônia",
		"lng" : -64.306814175887880,
		"lat" : -9.153592557639836
	},
	{
		"city" : "Presidente Médici",
		"admin_name" : "Rondônia",
		"lng" : -61.877952816246896,
		"lat" : -11.166273968692428
	},
	{
		"city" : "Cabixi",
		"admin_name" : "Rondônia",
		"lng" : -60.639807229785518,
		"lat" : -13.474878573271388
	},
	{
		"city" : "Teixeirópolis",
		"admin_name" : "Rondônia",
		"lng" : -62.279771597509274,
		"lat" : -10.943453279133070
	},
	{
		"city" : "Theobroma",
		"admin_name" : "Rondônia",
		"lng" : -62.342504547798185,
		"lat" : -10.121768866672006
	},
	{
		"city" : "São Miguel das Matas",
		"admin_name" : "Bahia",
		"lng" : -39.423369803646438,
		"lat" : -13.054075034118961
	},
	{
		"city" : "São Sebastião do Passé",
		"admin_name" : "Bahia",
		"lng" : -38.498878272367207,
		"lat" : -12.547192615871213
	},
	{
		"city" : "Sapeaçu",
		"admin_name" : "Bahia",
		"lng" : -39.212869402222154,
		"lat" : -12.725894483932263
	},
	{
		"city" : "Sátiro Dias",
		"admin_name" : "Bahia",
		"lng" : -38.588826185020096,
		"lat" : -11.565327466912587
	},
	{
		"city" : "Saubara",
		"admin_name" : "Bahia",
		"lng" : -38.804681783448189,
		"lat" : -12.762517839386131
	},
	{
		"city" : "Saúde",
		"admin_name" : "Bahia",
		"lng" : -40.381343005553333,
		"lat" : -10.912534067126055
	},
	{
		"city" : "Seabra",
		"admin_name" : "Bahia",
		"lng" : -41.884755276785846,
		"lat" : -12.417697887902177
	},
	{
		"city" : "Sebastião Laranjeiras",
		"admin_name" : "Bahia",
		"lng" : -43.127284888120450,
		"lat" : -14.573409350994439
	},
	{
		"city" : "Cacoal",
		"admin_name" : "Rondônia",
		"lng" : -61.324728739845206,
		"lat" : -11.301287351444181
	},
	{
		"city" : "Cerejeiras",
		"admin_name" : "Rondônia",
		"lng" : -61.260949557525358,
		"lat" : -13.203561612763423
	},
	{
		"city" : "Barcelos",
		"admin_name" : "Amazonas",
		"lng" : -63.434812326323680,
		"lat" : -0.465183273312908
	},
	{
		"city" : "Barreirinha",
		"admin_name" : "Amazonas",
		"lng" : -57.172383302777597,
		"lat" : -3.129025200996941
	},
	{
		"city" : "Benjamin Constant",
		"admin_name" : "Amazonas",
		"lng" : -70.276116617102915,
		"lat" : -5.426668887450569
	},
	{
		"city" : "Beruri",
		"admin_name" : "Amazonas",
		"lng" : -61.804352567802553,
		"lat" : -4.606232873196451
	},
	{
		"city" : "Boca do Acre",
		"admin_name" : "Amazonas",
		"lng" : -68.047633741500022,
		"lat" : -8.773154659782872
	},
	{
		"city" : "Borba",
		"admin_name" : "Amazonas",
		"lng" : -59.534693928566142,
		"lat" : -4.957617435038293
	},
	{
		"city" : "Caapiranga",
		"admin_name" : "Amazonas",
		"lng" : -61.877757807217108,
		"lat" : -3.082018997555946
	},
	{
		"city" : "Canutama",
		"admin_name" : "Amazonas",
		"lng" : -64.061903788554829,
		"lat" : -7.300757520630773
	},
	{
		"city" : "Colorado do Oeste",
		"admin_name" : "Rondônia",
		"lng" : -60.550244345046032,
		"lat" : -13.159153178444315
	},
	{
		"city" : "Corumbiara",
		"admin_name" : "Rondônia",
		"lng" : -61.091646457623860,
		"lat" : -12.926629418957171
	},
	{
		"city" : "Costa Marques",
		"admin_name" : "Rondônia",
		"lng" : -64.058771743371409,
		"lat" : -12.147250102212032
	},
	{
		"city" : "Carauari",
		"admin_name" : "Amazonas",
		"lng" : -67.337471638057508,
		"lat" : -5.118516488512737
	},
	{
		"city" : "Careiro",
		"admin_name" : "Amazonas",
		"lng" : -60.183273270906682,
		"lat" : -3.770484298696680
	},
	{
		"city" : "Careiro da Várzea",
		"admin_name" : "Amazonas",
		"lng" : -59.598676996278250,
		"lat" : -3.286012050879969
	},
	{
		"city" : "Coari",
		"admin_name" : "Amazonas",
		"lng" : -64.125310646430563,
		"lat" : -4.436351417282342
	},
	{
		"city" : "Codajás",
		"admin_name" : "Amazonas",
		"lng" : -62.973315024131914,
		"lat" : -3.288971965832739
	},
	{
		"city" : "Eirunepé",
		"admin_name" : "Amazonas",
		"lng" : -70.218248152714580,
		"lat" : -7.021998047211146
	},
	{
		"city" : "Envira",
		"admin_name" : "Amazonas",
		"lng" : -70.055085888957507,
		"lat" : -7.573304190396303
	},
	{
		"city" : "Fonte Boa",
		"admin_name" : "Amazonas",
		"lng" : -66.357924214047017,
		"lat" : -2.490985540403262
	},
	{
		"city" : "Guajará",
		"admin_name" : "Amazonas",
		"lng" : -72.844587964696032,
		"lat" : -7.229780920950142
	},
	{
		"city" : "Humaitá",
		"admin_name" : "Amazonas",
		"lng" : -62.486436024047222,
		"lat" : -7.361218018754996
	},
	{
		"city" : "Ipixuna",
		"admin_name" : "Amazonas",
		"lng" : -71.412866867755525,
		"lat" : -7.180511579339234
	},
	{
		"city" : "Iranduba",
		"admin_name" : "Amazonas",
		"lng" : -60.612532598421559,
		"lat" : -3.083434054596290
	},
	{
		"city" : "Itacoatiara",
		"admin_name" : "Amazonas",
		"lng" : -58.775342798345307,
		"lat" : -3.174123473000777
	},
	{
		"city" : "Itamarati",
		"admin_name" : "Amazonas",
		"lng" : -68.112841217748127,
		"lat" : -6.682822240964691
	},
	{
		"city" : "Itapiranga",
		"admin_name" : "Amazonas",
		"lng" : -58.613268339019683,
		"lat" : -2.497237443263176
	},
	{
		"city" : "Japurá",
		"admin_name" : "Amazonas",
		"lng" : -68.353793363202143,
		"lat" : -1.657441334706189
	},
	{
		"city" : "Juruá",
		"admin_name" : "Amazonas",
		"lng" : -66.307799186515311,
		"lat" : -3.524464206399987
	},
	{
		"city" : "Jutaí",
		"admin_name" : "Amazonas",
		"lng" : -68.406304479197345,
		"lat" : -4.715290841709901
	},
	{
		"city" : "Lábrea",
		"admin_name" : "Amazonas",
		"lng" : -65.811662922750202,
		"lat" : -8.375601509538155
	},
	{
		"city" : "Espigão D'Oeste",
		"admin_name" : "Rondônia",
		"lng" : -60.784830625593358,
		"lat" : -11.351342215273089
	},
	{
		"city" : "Rio Crespo",
		"admin_name" : "Rondônia",
		"lng" : -62.790074484862679,
		"lat" : -9.645211562777309
	},
	{
		"city" : "Manacapuru",
		"admin_name" : "Amazonas",
		"lng" : -61.043928832090806,
		"lat" : -3.231007815019650
	},
	{
		"city" : "Manaquiri",
		"admin_name" : "Amazonas",
		"lng" : -60.697266062865715,
		"lat" : -3.779050741018259
	},
	{
		"city" : "Manaus",
		"admin_name" : "Amazonas",
		"lng" : -60.259628014217924,
		"lat" : -2.625919382625067
	},
	{
		"city" : "Manicoré",
		"admin_name" : "Amazonas",
		"lng" : -61.446773148630584,
		"lat" : -6.459959781882255
	},
	{
		"city" : "Maraã",
		"admin_name" : "Amazonas",
		"lng" : -65.039551228853284,
		"lat" : -2.426828643049009
	},
	{
		"city" : "Maués",
		"admin_name" : "Amazonas",
		"lng" : -58.060922843601247,
		"lat" : -4.984780943313113
	},
	{
		"city" : "Nhamundá",
		"admin_name" : "Amazonas",
		"lng" : -57.656137569298778,
		"lat" : -1.680620710675254
	},
	{
		"city" : "Nova Olinda do Norte",
		"admin_name" : "Amazonas",
		"lng" : -58.599769871493663,
		"lat" : -3.989502821001629
	},
	{
		"city" : "Novo Airão",
		"admin_name" : "Amazonas",
		"lng" : -61.702894767398647,
		"lat" : -2.047362648199461
	},
	{
		"city" : "Novo Aripuanã",
		"admin_name" : "Amazonas",
		"lng" : -60.477154799230078,
		"lat" : -6.824012901298955
	},
	{
		"city" : "Parintins",
		"admin_name" : "Amazonas",
		"lng" : -56.755534505383835,
		"lat" : -2.664543099342463
	},
	{
		"city" : "Pauini",
		"admin_name" : "Amazonas",
		"lng" : -68.197140939994739,
		"lat" : -7.757805435146119
	},
	{
		"city" : "Presidente Figueiredo",
		"admin_name" : "Amazonas",
		"lng" : -59.988640195584580,
		"lat" : -1.372134229650437
	},
	{
		"city" : "Rio Preto da Eva",
		"admin_name" : "Amazonas",
		"lng" : -59.638380419797343,
		"lat" : -2.529822925616846
	},
	{
		"city" : "Santa Isabel do Rio Negro",
		"admin_name" : "Amazonas",
		"lng" : -65.521328585499504,
		"lat" : -0.318363994596459
	},
	{
		"city" : "Santo Antônio do Içá",
		"admin_name" : "Amazonas",
		"lng" : -69.089348409451290,
		"lat" : -3.052904848978937
	},
	{
		"city" : "São Gabriel da Cachoeira",
		"admin_name" : "Amazonas",
		"lng" : -67.996932674605219,
		"lat" : 0.374898135723788
	},
	{
		"city" : "São Paulo de Olivença",
		"admin_name" : "Amazonas",
		"lng" : -69.451118586345572,
		"lat" : -4.501436484898433
	},
	{
		"city" : "São Sebastião do Uatumã",
		"admin_name" : "Amazonas",
		"lng" : -58.705260978758908,
		"lat" : -1.941762350077459
	},
	{
		"city" : "Silves",
		"admin_name" : "Amazonas",
		"lng" : -58.537087354731767,
		"lat" : -2.820549321449504
	},
	{
		"city" : "Tabatinga",
		"admin_name" : "Amazonas",
		"lng" : -69.678086551311424,
		"lat" : -4.028516856771708
	},
	{
		"city" : "Tapauá",
		"admin_name" : "Amazonas",
		"lng" : -64.955796423608760,
		"lat" : -6.093701967105821
	},
	{
		"city" : "Tefé",
		"admin_name" : "Amazonas",
		"lng" : -65.531536044414352,
		"lat" : -4.470110667501873
	},
	{
		"city" : "Rolim de Moura",
		"admin_name" : "Rondônia",
		"lng" : -61.908138848489465,
		"lat" : -11.769517628507568
	},
	{
		"city" : "Uarini",
		"admin_name" : "Amazonas",
		"lng" : -65.410789663846828,
		"lat" : -3.165655863519128
	},
	{
		"city" : "Urucará",
		"admin_name" : "Amazonas",
		"lng" : -59.029631683803210,
		"lat" : -0.894306850855651
	},
	{
		"city" : "Santa Luzia D'Oeste",
		"admin_name" : "Rondônia",
		"lng" : -61.701090602189659,
		"lat" : -12.026967788360567
	},
	{
		"city" : "Vilhena",
		"admin_name" : "Rondônia",
		"lng" : -60.248420330574433,
		"lat" : -12.095622416547096
	},
	{
		"city" : "Nova Mamoré",
		"admin_name" : "Rondônia",
		"lng" : -64.629174578934894,
		"lat" : -10.382183777806954
	},
	{
		"city" : "Alvorada D'Oeste",
		"admin_name" : "Rondônia",
		"lng" : -62.544992236891098,
		"lat" : -11.311420965691566
	},
	{
		"city" : "Alto Alegre dos Parecis",
		"admin_name" : "Rondônia",
		"lng" : -61.880807424411920,
		"lat" : -12.593736082229524
	},
	{
		"city" : "Alto Paraíso",
		"admin_name" : "Rondônia",
		"lng" : -63.394322250509774,
		"lat" : -9.649310303838726
	},
	{
		"city" : "Buritis",
		"admin_name" : "Rondônia",
		"lng" : -63.941162731725235,
		"lat" : -10.052115295263780
	},
	{
		"city" : "Urucurituba",
		"admin_name" : "Amazonas",
		"lng" : -57.771310139196665,
		"lat" : -2.813757323449346
	},
	{
		"city" : "Amajari",
		"admin_name" : "Roraima",
		"lng" : -62.436951678260222,
		"lat" : 3.732908710943865
	},
	{
		"city" : "Alto Alegre",
		"admin_name" : "Roraima",
		"lng" : -62.759699493763343,
		"lat" : 3.075785421456278
	},
	{
		"city" : "Boa Vista",
		"admin_name" : "Roraima",
		"lng" : -60.717953085020575,
		"lat" : 3.117915000991624
	},
	{
		"city" : "Bonfim",
		"admin_name" : "Roraima",
		"lng" : -60.100184792718196,
		"lat" : 2.787100686319151
	},
	{
		"city" : "Cantá",
		"admin_name" : "Roraima",
		"lng" : -60.542284970434807,
		"lat" : 2.272836718048210
	},
	{
		"city" : "Caracaraí",
		"admin_name" : "Roraima",
		"lng" : -61.471727938275016,
		"lat" : 0.990644527433535
	},
	{
		"city" : "Caroebe",
		"admin_name" : "Roraima",
		"lng" : -59.338148423808981,
		"lat" : 0.914695761946613
	},
	{
		"city" : "Mucajaí",
		"admin_name" : "Roraima",
		"lng" : -61.998253872092192,
		"lat" : 2.511191642521074
	},
	{
		"city" : "Normandia",
		"admin_name" : "Roraima",
		"lng" : -60.065024568383890,
		"lat" : 3.879113775206412
	},
	{
		"city" : "Pacaraima",
		"admin_name" : "Roraima",
		"lng" : -60.839438952825141,
		"lat" : 4.168714211580994
	},
	{
		"city" : "Rorainópolis",
		"admin_name" : "Roraima",
		"lng" : -61.010501443612625,
		"lat" : 0.037744272281960
	},
	{
		"city" : "São João da Baliza",
		"admin_name" : "Roraima",
		"lng" : -59.845020000600222,
		"lat" : 0.635780013918708
	},
	{
		"city" : "Novo Horizonte do Oeste",
		"admin_name" : "Rondônia",
		"lng" : -62.083201966253547,
		"lat" : -11.681093911194864
	},
	{
		"city" : "Água Azul do Norte",
		"admin_name" : "Pará",
		"lng" : -50.430155058162931,
		"lat" : -6.772978675052053
	},
	{
		"city" : "Alenquer",
		"admin_name" : "Pará",
		"lng" : -55.039155496328881,
		"lat" : -0.604682709059385
	},
	{
		"city" : "Almeirim",
		"admin_name" : "Pará",
		"lng" : -53.893585053729232,
		"lat" : 0.284478936236512
	},
	{
		"city" : "Altamira",
		"admin_name" : "Pará",
		"lng" : -53.886683212430810,
		"lat" : -6.486171807199169
	},
	{
		"city" : "Anajás",
		"admin_name" : "Pará",
		"lng" : -49.961281250649726,
		"lat" : -0.827016089817868
	},
	{
		"city" : "Ananindeua",
		"admin_name" : "Pará",
		"lng" : -48.383566961435641,
		"lat" : -1.287410602193889
	},
	{
		"city" : "Anapu",
		"admin_name" : "Pará",
		"lng" : -51.301277735480134,
		"lat" : -3.997185121646428
	},
	{
		"city" : "Senhor do Bonfim",
		"admin_name" : "Bahia",
		"lng" : -40.115243060017583,
		"lat" : -10.484163124488663
	},
	{
		"city" : "Cacaulândia",
		"admin_name" : "Rondônia",
		"lng" : -62.987261286455222,
		"lat" : -10.331602810529631
	},
	{
		"city" : "Campo Novo de Rondônia",
		"admin_name" : "Rondônia",
		"lng" : -63.799716465907693,
		"lat" : -10.484933975169318
	},
	{
		"city" : "Candeias do Jamari",
		"admin_name" : "Rondônia",
		"lng" : -63.558635707862578,
		"lat" : -8.878423219700950
	},
	{
		"city" : "Serra do Ramalho",
		"admin_name" : "Bahia",
		"lng" : -43.676194500635951,
		"lat" : -13.484295277874375
	},
	{
		"city" : "Sento Sé",
		"admin_name" : "Bahia",
		"lng" : -41.638028072686403,
		"lat" : -10.101683344901902
	},
	{
		"city" : "Serra Dourada",
		"admin_name" : "Bahia",
		"lng" : -43.797591045438530,
		"lat" : -12.806268774938221
	},
	{
		"city" : "Serra Preta",
		"admin_name" : "Bahia",
		"lng" : -39.378586737381291,
		"lat" : -12.095383215044450
	},
	{
		"city" : "Serrinha",
		"admin_name" : "Bahia",
		"lng" : -38.993790470604836,
		"lat" : -11.665667464058624
	},
	{
		"city" : "Serrolândia",
		"admin_name" : "Bahia",
		"lng" : -40.260882981803810,
		"lat" : -11.429022287671147
	},
	{
		"city" : "Simões Filho",
		"admin_name" : "Bahia",
		"lng" : -38.400819845835095,
		"lat" : -12.768226878121755
	},
	{
		"city" : "Sítio do Mato",
		"admin_name" : "Bahia",
		"lng" : -43.474997247529345,
		"lat" : -12.855221852177815
	},
	{
		"city" : "Castanheiras",
		"admin_name" : "Rondônia",
		"lng" : -61.880069792562729,
		"lat" : -11.470802261573956
	},
	{
		"city" : "Chupinguaia",
		"admin_name" : "Rondônia",
		"lng" : -60.898384045509651,
		"lat" : -12.537328237169193
	},
	{
		"city" : "Cujubim",
		"admin_name" : "Rondônia",
		"lng" : -62.565335842186357,
		"lat" : -9.171093633156284
	},
	{
		"city" : "Governador Jorge Teixeira",
		"admin_name" : "Rondônia",
		"lng" : -63.184012138003688,
		"lat" : -10.748029345076187
	},
	{
		"city" : "Itapuã do Oeste",
		"admin_name" : "Rondônia",
		"lng" : -63.044941285600231,
		"lat" : -9.170209678207121
	},
	{
		"city" : "Ministro Andreazza",
		"admin_name" : "Rondônia",
		"lng" : -61.568969169013286,
		"lat" : -11.160294268396552
	},
	{
		"city" : "Mirante da Serra",
		"admin_name" : "Rondônia",
		"lng" : -62.847979332091597,
		"lat" : -11.076837840084490
	},
	{
		"city" : "Monte Negro",
		"admin_name" : "Rondônia",
		"lng" : -63.372392608165342,
		"lat" : -10.210832495968214
	},
	{
		"city" : "Nova União",
		"admin_name" : "Rondônia",
		"lng" : -62.532357138224427,
		"lat" : -10.889344285044862
	},
	{
		"city" : "Parecis",
		"admin_name" : "Rondônia",
		"lng" : -61.415383683950530,
		"lat" : -12.262326907873037
	},
	{
		"city" : "Primavera de Rondônia",
		"admin_name" : "Rondônia",
		"lng" : -61.315335380471595,
		"lat" : -11.878685960599785
	},
	{
		"city" : "São Felipe D'Oeste",
		"admin_name" : "Rondônia",
		"lng" : -61.467070416377730,
		"lat" : -11.904967972861570
	},
	{
		"city" : "São Francisco do Guaporé",
		"admin_name" : "Rondônia",
		"lng" : -63.122112648683448,
		"lat" : -12.368687779414302
	},
	{
		"city" : "Seringueiras",
		"admin_name" : "Rondônia",
		"lng" : -63.230699065487038,
		"lat" : -11.807217645501270
	},
	{
		"city" : "Urupá",
		"admin_name" : "Rondônia",
		"lng" : -62.424410338154360,
		"lat" : -11.103952818375030
	},
	{
		"city" : "Vale do Anari",
		"admin_name" : "Rondônia",
		"lng" : -61.939100669800446,
		"lat" : -9.732434292027840
	},
	{
		"city" : "Barcarena",
		"admin_name" : "Pará",
		"lng" : -48.634260933113140,
		"lat" : -1.498638282716516
	},
	{
		"city" : "Belém",
		"admin_name" : "Pará",
		"lng" : -48.431057367672437,
		"lat" : -1.240543504266252
	},
	{
		"city" : "Belterra",
		"admin_name" : "Pará",
		"lng" : -54.992849710608148,
		"lat" : -3.191127451438412
	},
	{
		"city" : "Sítio do Quinto",
		"admin_name" : "Bahia",
		"lng" : -38.156417461860933,
		"lat" : -10.328224422063322
	},
	{
		"city" : "Sobradinho",
		"admin_name" : "Bahia",
		"lng" : -40.863997077144461,
		"lat" : -9.645748274229005
	},
	{
		"city" : "Vale do Paraíso",
		"admin_name" : "Rondônia",
		"lng" : -62.094046524864190,
		"lat" : -10.384256696657344
	},
	{
		"city" : "Acrelândia",
		"admin_name" : "Acre",
		"lng" : -66.950491967422323,
		"lat" : -9.933715330733760
	},
	{
		"city" : "Assis Brasil",
		"admin_name" : "Acre",
		"lng" : -70.005888205614696,
		"lat" : -10.779063902100791
	},
	{
		"city" : "Brasiléia",
		"admin_name" : "Acre",
		"lng" : -69.207641070892649,
		"lat" : -10.746741315924124
	},
	{
		"city" : "Bujari",
		"admin_name" : "Acre",
		"lng" : -68.173710868998654,
		"lat" : -9.614094873986330
	},
	{
		"city" : "Capixaba",
		"admin_name" : "Acre",
		"lng" : -67.836072126720950,
		"lat" : -10.473616047198856
	},
	{
		"city" : "Cruzeiro do Sul",
		"admin_name" : "Acre",
		"lng" : -72.754878673280032,
		"lat" : -7.971937743285366
	},
	{
		"city" : "Epitaciolândia",
		"admin_name" : "Acre",
		"lng" : -68.618118844647128,
		"lat" : -10.888956676962330
	},
	{
		"city" : "Feijó",
		"admin_name" : "Acre",
		"lng" : -70.744779317253148,
		"lat" : -8.924463531117883
	},
	{
		"city" : "Jordão",
		"admin_name" : "Acre",
		"lng" : -71.906096777489608,
		"lat" : -9.242578384901471
	},
	{
		"city" : "Mâncio Lima",
		"admin_name" : "Acre",
		"lng" : -73.438974775367754,
		"lat" : -7.504444694651518
	},
	{
		"city" : "Manoel Urbano",
		"admin_name" : "Acre",
		"lng" : -69.853923754465939,
		"lat" : -9.381205635850771
	},
	{
		"city" : "Marechal Thaumaturgo",
		"admin_name" : "Acre",
		"lng" : -72.559326335122705,
		"lat" : -9.095973451281466
	},
	{
		"city" : "Plácido de Castro",
		"admin_name" : "Acre",
		"lng" : -67.340006846601923,
		"lat" : -10.248949556766174
	},
	{
		"city" : "Porto Walter",
		"admin_name" : "Acre",
		"lng" : -72.733504696780273,
		"lat" : -8.491700204964195
	},
	{
		"city" : "Rio Branco",
		"admin_name" : "Acre",
		"lng" : -68.371080289369885,
		"lat" : -10.066140093931882
	},
	{
		"city" : "Rodrigues Alves",
		"admin_name" : "Acre",
		"lng" : -73.223280835233552,
		"lat" : -7.843741205816997
	},
	{
		"city" : "Santa Rosa do Purus",
		"admin_name" : "Acre",
		"lng" : -70.395550912735473,
		"lat" : -9.410337695178317
	},
	{
		"city" : "Senador Guiomard",
		"admin_name" : "Acre",
		"lng" : -67.427149755792612,
		"lat" : -9.997112764395922
	},
	{
		"city" : "Sena Madureira",
		"admin_name" : "Acre",
		"lng" : -69.381569965875244,
		"lat" : -9.771174691926337
	},
	{
		"city" : "Tarauacá",
		"admin_name" : "Acre",
		"lng" : -71.444933939706758,
		"lat" : -8.239444688474308
	},
	{
		"city" : "Xapuri",
		"admin_name" : "Acre",
		"lng" : -68.504767310065276,
		"lat" : -10.575487452176704
	},
	{
		"city" : "Porto Acre",
		"admin_name" : "Acre",
		"lng" : -67.698446487254088,
		"lat" : -9.629505647731472
	},
	{
		"city" : "Alvarães",
		"admin_name" : "Amazonas",
		"lng" : -65.324446698533492,
		"lat" : -3.694684746556633
	},
	{
		"city" : "Amaturá",
		"admin_name" : "Amazonas",
		"lng" : -68.286499467860452,
		"lat" : -3.418433428955936
	},
	{
		"city" : "Anamã",
		"admin_name" : "Amazonas",
		"lng" : -61.717987878538537,
		"lat" : -3.501856787093107
	},
	{
		"city" : "Anori",
		"admin_name" : "Amazonas",
		"lng" : -62.095409484052063,
		"lat" : -4.198680214629947
	},
	{
		"city" : "Apuí",
		"admin_name" : "Amazonas",
		"lng" : -59.432019391675816,
		"lat" : -7.760009436311440
	},
	{
		"city" : "Atalaia do Norte",
		"admin_name" : "Amazonas",
		"lng" : -71.741371096788598,
		"lat" : -5.711904459547639
	},
	{
		"city" : "Autazes",
		"admin_name" : "Amazonas",
		"lng" : -59.525533896447776,
		"lat" : -3.787230511372792
	},
	{
		"city" : "São Luiz",
		"admin_name" : "Roraima",
		"lng" : -60.151835999839868,
		"lat" : 0.884434676099430
	},
	{
		"city" : "Uiramutã",
		"admin_name" : "Roraima",
		"lng" : -60.280843258952707,
		"lat" : 4.684077921225108
	},
	{
		"city" : "Abaetetuba",
		"admin_name" : "Pará",
		"lng" : -48.766842970042454,
		"lat" : -1.717955984140283
	},
	{
		"city" : "Abel Figueiredo",
		"admin_name" : "Pará",
		"lng" : -48.424600767866373,
		"lat" : -4.957318685387031
	},
	{
		"city" : "Acará",
		"admin_name" : "Pará",
		"lng" : -48.411527188838903,
		"lat" : -2.035451395330077
	},
	{
		"city" : "Tanhaçu",
		"admin_name" : "Bahia",
		"lng" : -41.195412326980261,
		"lat" : -14.145964454597758
	},
	{
		"city" : "Tanque Novo",
		"admin_name" : "Bahia",
		"lng" : -42.537536044433267,
		"lat" : -13.556042477251617
	},
	{
		"city" : "Tanquinho",
		"admin_name" : "Bahia",
		"lng" : -39.094255233005448,
		"lat" : -11.958340222253266
	},
	{
		"city" : "Taperoá",
		"admin_name" : "Bahia",
		"lng" : -39.227908854036734,
		"lat" : -13.572671391923221
	},
	{
		"city" : "Tapiramutá",
		"admin_name" : "Bahia",
		"lng" : -40.791362350381320,
		"lat" : -11.876170038107608
	},
	{
		"city" : "Teixeira de Freitas",
		"admin_name" : "Bahia",
		"lng" : -39.786880707984622,
		"lat" : -17.424098159177515
	},
	{
		"city" : "Teodoro Sampaio",
		"admin_name" : "Bahia",
		"lng" : -38.615216073753267,
		"lat" : -12.267556696469159
	},
	{
		"city" : "Teofilândia",
		"admin_name" : "Bahia",
		"lng" : -38.950988636893619,
		"lat" : -11.470751325506065
	},
	{
		"city" : "Teolândia",
		"admin_name" : "Bahia",
		"lng" : -39.497485677373604,
		"lat" : -13.554403800922399
	},
	{
		"city" : "Terra Nova",
		"admin_name" : "Bahia",
		"lng" : -38.599769207962694,
		"lat" : -12.396817607783227
	},
	{
		"city" : "Tremedal",
		"admin_name" : "Bahia",
		"lng" : -41.471966484263966,
		"lat" : -15.053559569262401
	},
	{
		"city" : "Afuá",
		"admin_name" : "Pará",
		"lng" : -50.886164756923364,
		"lat" : -0.169591601300855
	},
	{
		"city" : "Augusto Corrêa",
		"admin_name" : "Pará",
		"lng" : -46.508659120476977,
		"lat" : -1.107331605111175
	},
	{
		"city" : "Aurora do Pará",
		"admin_name" : "Pará",
		"lng" : -47.726352545519944,
		"lat" : -2.231178571259428
	},
	{
		"city" : "Aveiro",
		"admin_name" : "Pará",
		"lng" : -56.016298350069448,
		"lat" : -3.667215099621055
	},
	{
		"city" : "Bagre",
		"admin_name" : "Pará",
		"lng" : -50.181766982591100,
		"lat" : -2.373143108922813
	},
	{
		"city" : "Baião",
		"admin_name" : "Pará",
		"lng" : -49.698978388208118,
		"lat" : -3.129559940685352
	},
	{
		"city" : "Bannach",
		"admin_name" : "Pará",
		"lng" : -50.634416339140351,
		"lat" : -7.486384401334925
	},
	{
		"city" : "Benevides",
		"admin_name" : "Pará",
		"lng" : -48.275620322411712,
		"lat" : -1.339617610969472
	},
	{
		"city" : "Bom Jesus do Tocantins",
		"admin_name" : "Pará",
		"lng" : -48.763514450059368,
		"lat" : -5.054266699154013
	},
	{
		"city" : "Tucano",
		"admin_name" : "Bahia",
		"lng" : -38.811942333041529,
		"lat" : -11.033333943656025
	},
	{
		"city" : "Uauá",
		"admin_name" : "Bahia",
		"lng" : -39.464074135341207,
		"lat" : -9.905837983212086
	},
	{
		"city" : "Ubaíra",
		"admin_name" : "Bahia",
		"lng" : -39.679320111056533,
		"lat" : -13.275977120863624
	},
	{
		"city" : "Ubaitaba",
		"admin_name" : "Bahia",
		"lng" : -39.421810659382430,
		"lat" : -14.267538239491795
	},
	{
		"city" : "Ubatã",
		"admin_name" : "Bahia",
		"lng" : -39.521852733822442,
		"lat" : -14.096416079588572
	},
	{
		"city" : "Bonito",
		"admin_name" : "Pará",
		"lng" : -47.302283791273098,
		"lat" : -1.387281419056387
	},
	{
		"city" : "Bragança",
		"admin_name" : "Pará",
		"lng" : -46.765410964701381,
		"lat" : -1.197963727515926
	},
	{
		"city" : "Brasil Novo",
		"admin_name" : "Pará",
		"lng" : -52.685404761252968,
		"lat" : -3.292106289035528
	},
	{
		"city" : "Palestina do Pará",
		"admin_name" : "Pará",
		"lng" : -48.370184181203321,
		"lat" : -5.927267068696900
	},
	{
		"city" : "Brejo Grande do Araguaia",
		"admin_name" : "Pará",
		"lng" : -48.431888991580010,
		"lat" : -5.735506816643110
	},
	{
		"city" : "Paragominas",
		"admin_name" : "Pará",
		"lng" : -47.603167375821094,
		"lat" : -3.203461940202826
	},
	{
		"city" : "Parauapebas",
		"admin_name" : "Pará",
		"lng" : -50.489772459602506,
		"lat" : -6.151734285575260
	},
	{
		"city" : "Pau D'Arco",
		"admin_name" : "Pará",
		"lng" : -50.123622298289099,
		"lat" : -7.736975192074060
	},
	{
		"city" : "Uibaí",
		"admin_name" : "Bahia",
		"lng" : -42.103987462670659,
		"lat" : -11.379928405620916
	},
	{
		"city" : "Umburanas",
		"admin_name" : "Bahia",
		"lng" : -41.246863050375360,
		"lat" : -10.575849122774541
	},
	{
		"city" : "Una",
		"admin_name" : "Bahia",
		"lng" : -39.148212234641861,
		"lat" : -15.233103481671936
	},
	{
		"city" : "Urandi",
		"admin_name" : "Bahia",
		"lng" : -42.684007834239765,
		"lat" : -14.736561666872001
	},
	{
		"city" : "Uruçuca",
		"admin_name" : "Bahia",
		"lng" : -39.231602778067590,
		"lat" : -14.527391865904258
	},
	{
		"city" : "Breu Branco",
		"admin_name" : "Pará",
		"lng" : -49.371220098735535,
		"lat" : -3.733484053892136
	},
	{
		"city" : "Breves",
		"admin_name" : "Pará",
		"lng" : -50.628160203978616,
		"lat" : -1.121081098344488
	},
	{
		"city" : "Lucrécia",
		"admin_name" : "Rio Grande do Norte",
		"lng" : -37.824372604346642,
		"lat" : -6.103579446506584
	},
	{
		"city" : "Bujaru",
		"admin_name" : "Pará",
		"lng" : -48.088661629040566,
		"lat" : -1.633949081587165
	},
	{
		"city" : "Cachoeira do Piriá",
		"admin_name" : "Pará",
		"lng" : -46.440784866733608,
		"lat" : -1.990813285892592
	},
	{
		"city" : "Cachoeira do Arari",
		"admin_name" : "Pará",
		"lng" : -48.877241421435890,
		"lat" : -0.869423616656122
	},
	{
		"city" : "Cametá",
		"admin_name" : "Pará",
		"lng" : -49.646417234320019,
		"lat" : -2.243419758630970
	},
	{
		"city" : "Canaã dos Carajás",
		"admin_name" : "Pará",
		"lng" : -50.146204353720357,
		"lat" : -6.372245827492814
	},
	{
		"city" : "Várzea da Roça",
		"admin_name" : "Bahia",
		"lng" : -40.066703268934894,
		"lat" : -11.598454770367868
	},
	{
		"city" : "Várzea do Poço",
		"admin_name" : "Bahia",
		"lng" : -40.315682120593692,
		"lat" : -11.541102425709132
	},
	{
		"city" : "Capanema",
		"admin_name" : "Pará",
		"lng" : -47.119451482703020,
		"lat" : -1.143200110676797
	},
	{
		"city" : "Capitão Poço",
		"admin_name" : "Pará",
		"lng" : -47.234174475374289,
		"lat" : -2.043766784379617
	},
	{
		"city" : "Mãe do Rio",
		"admin_name" : "Pará",
		"lng" : -47.512580393385626,
		"lat" : -1.991155369769461
	},
	{
		"city" : "Alto Rio Doce",
		"admin_name" : "Minas Gerais",
		"lng" : -43.403398536701026,
		"lat" : -21.035760500601018
	},
	{
		"city" : "Alvarenga",
		"admin_name" : "Minas Gerais",
		"lng" : -41.695435375041370,
		"lat" : -19.419945182553789
	},
	{
		"city" : "Castanhal",
		"admin_name" : "Pará",
		"lng" : -47.876996449265391,
		"lat" : -1.268941866666075
	},
	{
		"city" : "Chaves",
		"admin_name" : "Pará",
		"lng" : -49.976056278208993,
		"lat" : 0.040654694206348
	},
	{
		"city" : "Colares",
		"admin_name" : "Pará",
		"lng" : -48.231617639525638,
		"lat" : -0.929648504900648
	},
	{
		"city" : "Conceição do Araguaia",
		"admin_name" : "Pará",
		"lng" : -49.512708392658745,
		"lat" : -8.182491117449919
	},
	{
		"city" : "Alvinópolis",
		"admin_name" : "Minas Gerais",
		"lng" : -43.152508579210412,
		"lat" : -20.111810536808175
	},
	{
		"city" : "Concórdia do Pará",
		"admin_name" : "Pará",
		"lng" : -47.974821823018949,
		"lat" : -1.883983075256910
	},
	{
		"city" : "Cumaru do Norte",
		"admin_name" : "Pará",
		"lng" : -51.221037097947985,
		"lat" : -8.458172012865266
	},
	{
		"city" : "Curionópolis",
		"admin_name" : "Pará",
		"lng" : -49.624610673814097,
		"lat" : -6.228930191534372
	},
	{
		"city" : "Peixe-Boi",
		"admin_name" : "Pará",
		"lng" : -47.271982511234334,
		"lat" : -1.130711131462728
	},
	{
		"city" : "Alvorada de Minas",
		"admin_name" : "Minas Gerais",
		"lng" : -43.367599127671326,
		"lat" : -18.779019149642235
	},
	{
		"city" : "Amparo do Serra",
		"admin_name" : "Minas Gerais",
		"lng" : -42.804934208137880,
		"lat" : -20.528181661237483
	},
	{
		"city" : "Andradas",
		"admin_name" : "Minas Gerais",
		"lng" : -46.554752760053006,
		"lat" : -22.075769200778524
	},
	{
		"city" : "Cachoeira de Pajeú",
		"admin_name" : "Minas Gerais",
		"lng" : -41.498001408183804,
		"lat" : -15.968511776642371
	},
	{
		"city" : "Andrelândia",
		"admin_name" : "Minas Gerais",
		"lng" : -44.269702254193021,
		"lat" : -21.738856198280981
	},
	{
		"city" : "Angelândia",
		"admin_name" : "Minas Gerais",
		"lng" : -42.282835080348825,
		"lat" : -17.703240514203646
	},
	{
		"city" : "Antônio Carlos",
		"admin_name" : "Minas Gerais",
		"lng" : -43.766332443188951,
		"lat" : -21.410587015404250
	},
	{
		"city" : "Curralinho",
		"admin_name" : "Pará",
		"lng" : -49.988033895407561,
		"lat" : -1.583462265741614
	},
	{
		"city" : "Curuá",
		"admin_name" : "Pará",
		"lng" : -55.113491235291420,
		"lat" : -1.845742851925094
	},
	{
		"city" : "Antônio Dias",
		"admin_name" : "Minas Gerais",
		"lng" : -42.876357432856778,
		"lat" : -19.567065863438440
	},
	{
		"city" : "Antônio Prado de Minas",
		"admin_name" : "Minas Gerais",
		"lng" : -42.152021112605951,
		"lat" : -21.022542971306887
	},
	{
		"city" : "Curuçá",
		"admin_name" : "Pará",
		"lng" : -47.863246879772262,
		"lat" : -0.743099633452499
	},
	{
		"city" : "Dom Eliseu",
		"admin_name" : "Pará",
		"lng" : -47.898111166085130,
		"lat" : -4.186576498587761
	},
	{
		"city" : "Paes Landim",
		"admin_name" : "Piauí",
		"lng" : -42.285188368521695,
		"lat" : -7.812743971017891
	},
	{
		"city" : "Eldorado do Carajás",
		"admin_name" : "Pará",
		"lng" : -49.245435286113391,
		"lat" : -6.069645319518810
	},
	{
		"city" : "Faro",
		"admin_name" : "Pará",
		"lng" : -57.806038646410499,
		"lat" : -1.159079415999823
	},
	{
		"city" : "Floresta do Araguaia",
		"admin_name" : "Pará",
		"lng" : -49.576030546111546,
		"lat" : -7.548322818999607
	},
	{
		"city" : "Garrafão do Norte",
		"admin_name" : "Pará",
		"lng" : -47.075280672963601,
		"lat" : -2.167955780455570
	},
	{
		"city" : "Goianésia do Pará",
		"admin_name" : "Pará",
		"lng" : -49.005718354227305,
		"lat" : -4.027193117305703
	},
	{
		"city" : "Gurupá",
		"admin_name" : "Pará",
		"lng" : -51.555163867220301,
		"lat" : -1.151860491377550
	},
	{
		"city" : "Araçaí",
		"admin_name" : "Minas Gerais",
		"lng" : -44.218443916638535,
		"lat" : -19.234841963336283
	},
	{
		"city" : "Aracitaba",
		"admin_name" : "Minas Gerais",
		"lng" : -43.403757102809728,
		"lat" : -21.350334804021276
	},
	{
		"city" : "Araçuaí",
		"admin_name" : "Minas Gerais",
		"lng" : -41.993174809286565,
		"lat" : -16.930781593770678
	},
	{
		"city" : "Araguari",
		"admin_name" : "Minas Gerais",
		"lng" : -48.222170902961707,
		"lat" : -18.577118513315188
	},
	{
		"city" : "Igarapé-Açu",
		"admin_name" : "Pará",
		"lng" : -47.565987709070107,
		"lat" : -1.145018485098534
	},
	{
		"city" : "Igarapé-Miri",
		"admin_name" : "Pará",
		"lng" : -49.130744639748457,
		"lat" : -2.062705658866272
	},
	{
		"city" : "Inhangapi",
		"admin_name" : "Pará",
		"lng" : -47.922817118505812,
		"lat" : -1.464921590499870
	},
	{
		"city" : "Ipixuna do Pará",
		"admin_name" : "Pará",
		"lng" : -47.921546249763068,
		"lat" : -2.805778162159805
	},
	{
		"city" : "Irituia",
		"admin_name" : "Pará",
		"lng" : -47.399381953804877,
		"lat" : -1.812321681366973
	},
	{
		"city" : "Itaituba",
		"admin_name" : "Pará",
		"lng" : -56.496715303221123,
		"lat" : -5.871135291219358
	},
	{
		"city" : "Itupiranga",
		"admin_name" : "Pará",
		"lng" : -49.869706058410657,
		"lat" : -5.114824257174941
	},
	{
		"city" : "Jacareacanga",
		"admin_name" : "Pará",
		"lng" : -57.302705304446519,
		"lat" : -7.445286923485859
	},
	{
		"city" : "Jacundá",
		"admin_name" : "Pará",
		"lng" : -49.181197828932369,
		"lat" : -4.598532716056412
	},
	{
		"city" : "Juruti",
		"admin_name" : "Pará",
		"lng" : -56.221373584720418,
		"lat" : -2.622875885964541
	},
	{
		"city" : "Nova Timboteua",
		"admin_name" : "Pará",
		"lng" : -47.392147691159721,
		"lat" : -1.156442980656003
	},
	{
		"city" : "Limoeiro do Ajuru",
		"admin_name" : "Pará",
		"lng" : -49.469136536655533,
		"lat" : -1.864269101721551
	},
	{
		"city" : "Novo Progresso",
		"admin_name" : "Pará",
		"lng" : -55.612026363978927,
		"lat" : -8.062276596574240
	},
	{
		"city" : "Novo Repartimento",
		"admin_name" : "Pará",
		"lng" : -50.271609675890851,
		"lat" : -4.502843478956483
	},
	{
		"city" : "Óbidos",
		"admin_name" : "Pará",
		"lng" : -55.675043629773079,
		"lat" : -0.169919925117003
	},
	{
		"city" : "Oeiras do Pará",
		"admin_name" : "Pará",
		"lng" : -49.902330230238789,
		"lat" : -2.278918912218449
	},
	{
		"city" : "Oriximiná",
		"admin_name" : "Pará",
		"lng" : -57.149925201471071,
		"lat" : 0.255091984882721
	},
	{
		"city" : "Pajeú do Piauí",
		"admin_name" : "Piauí",
		"lng" : -42.833512101072841,
		"lat" : -7.903968797369915
	},
	{
		"city" : "Palmeira do Piauí",
		"admin_name" : "Piauí",
		"lng" : -44.464621851456180,
		"lat" : -8.556737668501651
	},
	{
		"city" : "Arantina",
		"admin_name" : "Minas Gerais",
		"lng" : -44.227177804065896,
		"lat" : -21.896927244108412
	},
	{
		"city" : "Magalhães Barata",
		"admin_name" : "Pará",
		"lng" : -47.635153270810420,
		"lat" : -0.809421624268355
	},
	{
		"city" : "Marabá",
		"admin_name" : "Pará",
		"lng" : -50.016960354699066,
		"lat" : -5.629799734554611
	},
	{
		"city" : "Salinópolis",
		"admin_name" : "Pará",
		"lng" : -47.348990704493943,
		"lat" : -0.680400666413033
	},
	{
		"city" : "Araponga",
		"admin_name" : "Minas Gerais",
		"lng" : -42.498849740895118,
		"lat" : -20.662791871982119
	},
	{
		"city" : "Araporã",
		"admin_name" : "Minas Gerais",
		"lng" : -49.127318570209155,
		"lat" : -18.476988835838224
	},
	{
		"city" : "Arapuá",
		"admin_name" : "Minas Gerais",
		"lng" : -46.115290460846118,
		"lat" : -19.041452354971156
	},
	{
		"city" : "Araújos",
		"admin_name" : "Minas Gerais",
		"lng" : -45.180967480914902,
		"lat" : -19.886412891567979
	},
	{
		"city" : "Maracanã",
		"admin_name" : "Pará",
		"lng" : -47.496561543119292,
		"lat" : -0.802479351579668
	},
	{
		"city" : "Santa Luzia do Pará",
		"admin_name" : "Pará",
		"lng" : -46.927151984394889,
		"lat" : -1.657495971433961
	},
	{
		"city" : "Santa Maria das Barreiras",
		"admin_name" : "Pará",
		"lng" : -50.314370239164781,
		"lat" : -8.633787535780410
	},
	{
		"city" : "Pavussu",
		"admin_name" : "Piauí",
		"lng" : -43.337231449719624,
		"lat" : -7.925300367116444
	},
	{
		"city" : "Araxá",
		"admin_name" : "Minas Gerais",
		"lng" : -46.972145980850158,
		"lat" : -19.636397077544515
	},
	{
		"city" : "Arceburgo",
		"admin_name" : "Minas Gerais",
		"lng" : -46.941939701222708,
		"lat" : -21.359470788200692
	},
	{
		"city" : "Arcos",
		"admin_name" : "Minas Gerais",
		"lng" : -45.547245733365884,
		"lat" : -20.259713472181211
	},
	{
		"city" : "Areado",
		"admin_name" : "Minas Gerais",
		"lng" : -46.107989803139851,
		"lat" : -21.362447647715577
	},
	{
		"city" : "Argirita",
		"admin_name" : "Minas Gerais",
		"lng" : -42.832590455971001,
		"lat" : -21.635317746829930
	},
	{
		"city" : "Aricanduva",
		"admin_name" : "Minas Gerais",
		"lng" : -42.605562371122851,
		"lat" : -17.881103722118567
	},
	{
		"city" : "Arinos",
		"admin_name" : "Minas Gerais",
		"lng" : -45.988574869734570,
		"lat" : -15.750686024743574
	},
	{
		"city" : "Astolfo Dutra",
		"admin_name" : "Minas Gerais",
		"lng" : -42.879319464213324,
		"lat" : -21.315494065408402
	},
	{
		"city" : "Marapanim",
		"admin_name" : "Pará",
		"lng" : -47.708965527131092,
		"lat" : -0.840625928568558
	},
	{
		"city" : "Santa Maria do Pará",
		"admin_name" : "Pará",
		"lng" : -47.521642122659713,
		"lat" : -1.374485195763167
	},
	{
		"city" : "Marituba",
		"admin_name" : "Pará",
		"lng" : -48.319828048098294,
		"lat" : -1.397487283712893
	},
	{
		"city" : "Medicilândia",
		"admin_name" : "Pará",
		"lng" : -53.194998241352003,
		"lat" : -3.160213169571724
	},
	{
		"city" : "Melgaço",
		"admin_name" : "Pará",
		"lng" : -51.103863912042030,
		"lat" : -1.607631796189883
	},
	{
		"city" : "Santana do Araguaia",
		"admin_name" : "Pará",
		"lng" : -50.611281713671353,
		"lat" : -9.364055728135529
	},
	{
		"city" : "Santarém",
		"admin_name" : "Pará",
		"lng" : -55.238455460085547,
		"lat" : -2.679336297550886
	},
	{
		"city" : "Ataléia",
		"admin_name" : "Minas Gerais",
		"lng" : -41.151487610495622,
		"lat" : -18.163374311328461
	},
	{
		"city" : "Augusto de Lima",
		"admin_name" : "Minas Gerais",
		"lng" : -44.198057324151435,
		"lat" : -18.108839660011448
	},
	{
		"city" : "Baependi",
		"admin_name" : "Minas Gerais",
		"lng" : -44.822116636479869,
		"lat" : -22.016836177709084
	},
	{
		"city" : "Baldim",
		"admin_name" : "Minas Gerais",
		"lng" : -43.863415747305012,
		"lat" : -19.262936318016138
	},
	{
		"city" : "Bambuí",
		"admin_name" : "Minas Gerais",
		"lng" : -45.998876007207464,
		"lat" : -20.110954632166639
	},
	{
		"city" : "Bandeira",
		"admin_name" : "Minas Gerais",
		"lng" : -40.580969038281495,
		"lat" : -15.877677177460651
	},
	{
		"city" : "Bandeira do Sul",
		"admin_name" : "Minas Gerais",
		"lng" : -46.374426136761734,
		"lat" : -21.734842261063548
	},
	{
		"city" : "Barão de Cocais",
		"admin_name" : "Minas Gerais",
		"lng" : -43.495495529521122,
		"lat" : -19.891746774986746
	},
	{
		"city" : "Barão de Monte Alto",
		"admin_name" : "Minas Gerais",
		"lng" : -42.278432924937817,
		"lat" : -21.264787189468390
	},
	{
		"city" : "Barbacena",
		"admin_name" : "Minas Gerais",
		"lng" : -43.800625996764303,
		"lat" : -21.251514027223589
	},
	{
		"city" : "Mocajuba",
		"admin_name" : "Pará",
		"lng" : -49.466289944595459,
		"lat" : -2.576646246408054
	},
	{
		"city" : "Moju",
		"admin_name" : "Pará",
		"lng" : -49.074041905801018,
		"lat" : -2.683911486277177
	},
	{
		"city" : "Mojuí dos Campos",
		"admin_name" : "Pará",
		"lng" : -54.575153053578049,
		"lat" : -3.070439975663708
	},
	{
		"city" : "Monte Alegre",
		"admin_name" : "Pará",
		"lng" : -54.353048959230691,
		"lat" : -1.074400167186470
	},
	{
		"city" : "Muaná",
		"admin_name" : "Pará",
		"lng" : -49.309250246605309,
		"lat" : -1.355675247542360
	},
	{
		"city" : "Nova Esperança do Piriá",
		"admin_name" : "Pará",
		"lng" : -46.899868592906039,
		"lat" : -2.392662726598238
	},
	{
		"city" : "Barra Longa",
		"admin_name" : "Minas Gerais",
		"lng" : -43.066200830985210,
		"lat" : -20.275634874829084
	},
	{
		"city" : "Barroso",
		"admin_name" : "Minas Gerais",
		"lng" : -43.957817173243171,
		"lat" : -21.183229063086820
	},
	{
		"city" : "Bela Vista de Minas",
		"admin_name" : "Minas Gerais",
		"lng" : -43.105587630084599,
		"lat" : -19.798036276091725
	},
	{
		"city" : "Belmiro Braga",
		"admin_name" : "Minas Gerais",
		"lng" : -43.468733353427048,
		"lat" : -21.985805250435273
	},
	{
		"city" : "Belo Horizonte",
		"admin_name" : "Minas Gerais",
		"lng" : -43.919526276647723,
		"lat" : -19.814709267189226
	},
	{
		"city" : "Belo Oriente",
		"admin_name" : "Minas Gerais",
		"lng" : -42.450417452358394,
		"lat" : -19.259416386438478
	},
	{
		"city" : "Nova Ipixuna",
		"admin_name" : "Pará",
		"lng" : -49.230770588649840,
		"lat" : -4.981070370277051
	},
	{
		"city" : "Belo Vale",
		"admin_name" : "Minas Gerais",
		"lng" : -44.059988622788900,
		"lat" : -20.424738453433907
	},
	{
		"city" : "Berilo",
		"admin_name" : "Minas Gerais",
		"lng" : -42.494288750197654,
		"lat" : -16.862375933181490
	},
	{
		"city" : "Bertópolis",
		"admin_name" : "Minas Gerais",
		"lng" : -40.574243817138715,
		"lat" : -16.974530226006465
	},
	{
		"city" : "Berizal",
		"admin_name" : "Minas Gerais",
		"lng" : -41.761758203460381,
		"lat" : -15.684116390923311
	},
	{
		"city" : "Betim",
		"admin_name" : "Minas Gerais",
		"lng" : -44.253363540760326,
		"lat" : -19.918972621600503
	},
	{
		"city" : "Bias Fortes",
		"admin_name" : "Minas Gerais",
		"lng" : -43.773674248636702,
		"lat" : -21.624690886221675
	},
	{
		"city" : "Bicas",
		"admin_name" : "Minas Gerais",
		"lng" : -43.104801919401588,
		"lat" : -21.731511776289945
	},
	{
		"city" : "Ourém",
		"admin_name" : "Pará",
		"lng" : -47.139413272512776,
		"lat" : -1.495970588185968
	},
	{
		"city" : "Ourilândia do Norte",
		"admin_name" : "Pará",
		"lng" : -51.430936095038291,
		"lat" : -7.520545378923870
	},
	{
		"city" : "Pacajá",
		"admin_name" : "Pará",
		"lng" : -50.631680553237551,
		"lat" : -3.684125743131355
	},
	{
		"city" : "Santo Inácio do Piauí",
		"admin_name" : "Piauí",
		"lng" : -42.015094262696628,
		"lat" : -7.458430630832190
	},
	{
		"city" : "Piçarra",
		"admin_name" : "Pará",
		"lng" : -49.011769147949011,
		"lat" : -6.541034913719106
	},
	{
		"city" : "Placas",
		"admin_name" : "Pará",
		"lng" : -54.500659026603884,
		"lat" : -3.889824153957978
	},
	{
		"city" : "Ponta de Pedras",
		"admin_name" : "Pará",
		"lng" : -49.077282012808048,
		"lat" : -1.117508431937563
	},
	{
		"city" : "Portel",
		"admin_name" : "Pará",
		"lng" : -50.955624408990019,
		"lat" : -2.565429098298952
	},
	{
		"city" : "Porto de Moz",
		"admin_name" : "Pará",
		"lng" : -52.547750523547776,
		"lat" : -2.184592863913818
	},
	{
		"city" : "Prainha",
		"admin_name" : "Pará",
		"lng" : -53.660172060081642,
		"lat" : -2.120245270648439
	},
	{
		"city" : "Santarém Novo",
		"admin_name" : "Pará",
		"lng" : -47.332946614135402,
		"lat" : -0.913343979429675
	},
	{
		"city" : "Primavera",
		"admin_name" : "Pará",
		"lng" : -47.131474389929110,
		"lat" : -0.952686536091131
	},
	{
		"city" : "Quatipuru",
		"admin_name" : "Pará",
		"lng" : -47.016345462928363,
		"lat" : -0.853576023662624
	},
	{
		"city" : "Redenção",
		"admin_name" : "Pará",
		"lng" : -50.198124056622049,
		"lat" : -8.069328964720384
	},
	{
		"city" : "Rio Maria",
		"admin_name" : "Pará",
		"lng" : -49.895143439358122,
		"lat" : -7.340632793721808
	},
	{
		"city" : "Rondon do Pará",
		"admin_name" : "Pará",
		"lng" : -48.460036736227764,
		"lat" : -4.516927472385635
	},
	{
		"city" : "Rurópolis",
		"admin_name" : "Pará",
		"lng" : -55.210740075599077,
		"lat" : -4.241042514128048
	},
	{
		"city" : "Biquinhas",
		"admin_name" : "Minas Gerais",
		"lng" : -45.539513236199610,
		"lat" : -18.757144355685547
	},
	{
		"city" : "Boa Esperança",
		"admin_name" : "Minas Gerais",
		"lng" : -45.621146481053032,
		"lat" : -21.048560809381264
	},
	{
		"city" : "Salvaterra",
		"admin_name" : "Pará",
		"lng" : -48.609216211727777,
		"lat" : -0.801384209875284
	},
	{
		"city" : "São Braz do Piauí",
		"admin_name" : "Piauí",
		"lng" : -43.007836631200433,
		"lat" : -8.962915495955786
	},
	{
		"city" : "Bocaina de Minas",
		"admin_name" : "Minas Gerais",
		"lng" : -44.482758815396430,
		"lat" : -22.215716492927630
	},
	{
		"city" : "Santa Bárbara do Pará",
		"admin_name" : "Pará",
		"lng" : -48.250516964795175,
		"lat" : -1.194335572420320
	},
	{
		"city" : "Esperantina",
		"admin_name" : "Tocantins",
		"lng" : -48.540886632686785,
		"lat" : -5.326518697284157
	},
	{
		"city" : "Bom Despacho",
		"admin_name" : "Minas Gerais",
		"lng" : -45.286115365751662,
		"lat" : -19.684518787696359
	},
	{
		"city" : "Santa Cruz do Arari",
		"admin_name" : "Pará",
		"lng" : -49.313859037508003,
		"lat" : -0.583350036428592
	},
	{
		"city" : "Santa Izabel do Pará",
		"admin_name" : "Pará",
		"lng" : -48.129307415135060,
		"lat" : -1.365206765418930
	},
	{
		"city" : "Santo Antônio do Tauá",
		"admin_name" : "Pará",
		"lng" : -48.182765463149238,
		"lat" : -1.093255829304643
	},
	{
		"city" : "São Domingos do Araguaia",
		"admin_name" : "Pará",
		"lng" : -48.730594426156195,
		"lat" : -5.657595271504957
	},
	{
		"city" : "Nova Rosalândia",
		"admin_name" : "Tocantins",
		"lng" : -48.974568872679761,
		"lat" : -10.549605304052568
	},
	{
		"city" : "Novo Acordo",
		"admin_name" : "Tocantins",
		"lng" : -47.383158602536177,
		"lat" : -10.155582392350100
	},
	{
		"city" : "Cruz do Espírito Santo",
		"admin_name" : "Paraíba",
		"lng" : -35.103387833180527,
		"lat" : -7.150746606243914
	},
	{
		"city" : "São Domingos do Capim",
		"admin_name" : "Pará",
		"lng" : -47.771752151410396,
		"lat" : -1.883874355173400
	},
	{
		"city" : "São Félix do Xingu",
		"admin_name" : "Pará",
		"lng" : -52.252697627504510,
		"lat" : -7.233364911910355
	},
	{
		"city" : "Bom Jardim de Minas",
		"admin_name" : "Minas Gerais",
		"lng" : -44.126964236041282,
		"lat" : -21.950061487735049
	},
	{
		"city" : "Bom Jesus da Penha",
		"admin_name" : "Minas Gerais",
		"lng" : -46.529054050093528,
		"lat" : -21.013763687890911
	},
	{
		"city" : "Bom Jesus do Amparo",
		"admin_name" : "Minas Gerais",
		"lng" : -43.468641665922341,
		"lat" : -19.717667453679020
	},
	{
		"city" : "São João da Ponta",
		"admin_name" : "Pará",
		"lng" : -47.964466158400207,
		"lat" : -0.870468398541136
	},
	{
		"city" : "Praia Norte",
		"admin_name" : "Tocantins",
		"lng" : -47.783562826196061,
		"lat" : -5.472460122403764
	},
	{
		"city" : "Presidente Kennedy",
		"admin_name" : "Tocantins",
		"lng" : -48.461343455330287,
		"lat" : -8.462353210103304
	},
	{
		"city" : "Pugmil",
		"admin_name" : "Tocantins",
		"lng" : -48.883318099397329,
		"lat" : -10.422593118439245
	},
	{
		"city" : "São João de Pirabas",
		"admin_name" : "Pará",
		"lng" : -47.212065579889753,
		"lat" : -0.780364377306290
	},
	{
		"city" : "Recursolândia",
		"admin_name" : "Tocantins",
		"lng" : -47.113068296342810,
		"lat" : -8.697266505059360
	},
	{
		"city" : "Riachinho",
		"admin_name" : "Tocantins",
		"lng" : -48.136176009154838,
		"lat" : -6.460339984189036
	},
	{
		"city" : "Bom Jesus do Galho",
		"admin_name" : "Minas Gerais",
		"lng" : -42.351041091635537,
		"lat" : -19.742309049356653
	},
	{
		"city" : "Bom Repouso",
		"admin_name" : "Minas Gerais",
		"lng" : -46.184390348860397,
		"lat" : -22.445809485744405
	},
	{
		"city" : "Bom Sucesso",
		"admin_name" : "Minas Gerais",
		"lng" : -44.784176138174367,
		"lat" : -21.026362251604990
	},
	{
		"city" : "Bonfim",
		"admin_name" : "Minas Gerais",
		"lng" : -44.214759156170977,
		"lat" : -20.321450293003959
	},
	{
		"city" : "Bonfinópolis de Minas",
		"admin_name" : "Minas Gerais",
		"lng" : -46.190389481698809,
		"lat" : -16.486351985424580
	},
	{
		"city" : "Bonito de Minas",
		"admin_name" : "Minas Gerais",
		"lng" : -44.897571637795089,
		"lat" : -14.994421034793129
	},
	{
		"city" : "Borda da Mata",
		"admin_name" : "Minas Gerais",
		"lng" : -46.151784748099089,
		"lat" : -22.256554047782661
	},
	{
		"city" : "Botelhos",
		"admin_name" : "Minas Gerais",
		"lng" : -46.419447249290755,
		"lat" : -21.636373972775967
	},
	{
		"city" : "Botumirim",
		"admin_name" : "Minas Gerais",
		"lng" : -43.005638954501670,
		"lat" : -16.937849350421899
	},
	{
		"city" : "Brasilândia de Minas",
		"admin_name" : "Minas Gerais",
		"lng" : -45.902478057713388,
		"lat" : -16.956983396667727
	},
	{
		"city" : "São João do Araguaia",
		"admin_name" : "Pará",
		"lng" : -48.696791796215116,
		"lat" : -5.447322885795562
	},
	{
		"city" : "Sampaio",
		"admin_name" : "Tocantins",
		"lng" : -47.918813073729090,
		"lat" : -5.329621600624876
	},
	{
		"city" : "Sandolândia",
		"admin_name" : "Tocantins",
		"lng" : -49.876173992927932,
		"lat" : -12.402101415421473
	},
	{
		"city" : "Brasília de Minas",
		"admin_name" : "Minas Gerais",
		"lng" : -44.439120831297068,
		"lat" : -16.242705989676978
	},
	{
		"city" : "Brás Pires",
		"admin_name" : "Minas Gerais",
		"lng" : -43.227450513886872,
		"lat" : -20.875124162043083
	},
	{
		"city" : "Braúnas",
		"admin_name" : "Minas Gerais",
		"lng" : -42.716429599090461,
		"lat" : -19.025725499025331
	},
	{
		"city" : "Brazópolis",
		"admin_name" : "Minas Gerais",
		"lng" : -45.627927451557873,
		"lat" : -22.491169627254305
	},
	{
		"city" : "Brumadinho",
		"admin_name" : "Minas Gerais",
		"lng" : -44.122675727517105,
		"lat" : -20.177826019178529
	},
	{
		"city" : "Bueno Brandão",
		"admin_name" : "Minas Gerais",
		"lng" : -46.355252433419430,
		"lat" : -22.486088081749347
	},
	{
		"city" : "Buenópolis",
		"admin_name" : "Minas Gerais",
		"lng" : -44.041380250676134,
		"lat" : -17.880520160162007
	},
	{
		"city" : "Bugre",
		"admin_name" : "Minas Gerais",
		"lng" : -42.310855864538951,
		"lat" : -19.357696174604264
	},
	{
		"city" : "Buritis",
		"admin_name" : "Minas Gerais",
		"lng" : -46.604368272486575,
		"lat" : -15.453171711787062
	},
	{
		"city" : "São Miguel do Guamá",
		"admin_name" : "Pará",
		"lng" : -47.611220842323405,
		"lat" : -1.552666542017248
	},
	{
		"city" : "Buritizeiro",
		"admin_name" : "Minas Gerais",
		"lng" : -45.191810030946279,
		"lat" : -17.286053342454071
	},
	{
		"city" : "Cabeceira Grande",
		"admin_name" : "Minas Gerais",
		"lng" : -47.123718469319996,
		"lat" : -16.076373566669439
	},
	{
		"city" : "Cabo Verde",
		"admin_name" : "Minas Gerais",
		"lng" : -46.344887171365542,
		"lat" : -21.443533667254183
	},
	{
		"city" : "Cachoeira da Prata",
		"admin_name" : "Minas Gerais",
		"lng" : -44.472008046866982,
		"lat" : -19.516979461680776
	},
	{
		"city" : "Cachoeira de Minas",
		"admin_name" : "Minas Gerais",
		"lng" : -45.792800709262004,
		"lat" : -22.362450253625688
	},
	{
		"city" : "São Sebastião da Boa Vista",
		"admin_name" : "Pará",
		"lng" : -49.680282510820518,
		"lat" : -1.434118275216637
	},
	{
		"city" : "Cachoeira Dourada",
		"admin_name" : "Minas Gerais",
		"lng" : -49.479291643828894,
		"lat" : -18.607517175972571
	},
	{
		"city" : "Sapucaia",
		"admin_name" : "Pará",
		"lng" : -49.569769775573292,
		"lat" : -6.838887423591361
	},
	{
		"city" : "Senador José Porfírio",
		"admin_name" : "Pará",
		"lng" : -51.763757233715666,
		"lat" : -4.324093619843953
	},
	{
		"city" : "Godofredo Viana",
		"admin_name" : "Maranhão",
		"lng" : -45.788922997491134,
		"lat" : -1.398358873111518
	},
	{
		"city" : "Caetanópolis",
		"admin_name" : "Minas Gerais",
		"lng" : -44.403440581499879,
		"lat" : -19.342510627908180
	},
	{
		"city" : "Caeté",
		"admin_name" : "Minas Gerais",
		"lng" : -43.636887082006723,
		"lat" : -19.867771879366828
	},
	{
		"city" : "Caiana",
		"admin_name" : "Minas Gerais",
		"lng" : -41.908415444331801,
		"lat" : -20.725310260827211
	},
	{
		"city" : "Cajuri",
		"admin_name" : "Minas Gerais",
		"lng" : -42.764153066013954,
		"lat" : -20.785307348175735
	},
	{
		"city" : "Caldas",
		"admin_name" : "Minas Gerais",
		"lng" : -46.363710711865870,
		"lat" : -21.890802540966639
	},
	{
		"city" : "Camacho",
		"admin_name" : "Minas Gerais",
		"lng" : -45.132175003172797,
		"lat" : -20.640841118692045
	},
	{
		"city" : "Soure",
		"admin_name" : "Pará",
		"lng" : -48.637139572519089,
		"lat" : -0.492785601487656
	},
	{
		"city" : "Tailândia",
		"admin_name" : "Pará",
		"lng" : -48.736703920287432,
		"lat" : -2.907846938780700
	},
	{
		"city" : "Camanducaia",
		"admin_name" : "Minas Gerais",
		"lng" : -46.074780941545150,
		"lat" : -22.786866713031742
	},
	{
		"city" : "Cambuí",
		"admin_name" : "Minas Gerais",
		"lng" : -46.078334631083770,
		"lat" : -22.582710508253591
	},
	{
		"city" : "Cambuquira",
		"admin_name" : "Minas Gerais",
		"lng" : -45.261834945555101,
		"lat" : -21.858954426393829
	},
	{
		"city" : "Campanário",
		"admin_name" : "Minas Gerais",
		"lng" : -41.734418313708204,
		"lat" : -18.283968530303710
	},
	{
		"city" : "Terra Santa",
		"admin_name" : "Pará",
		"lng" : -56.458424137318914,
		"lat" : -1.951503492973649
	},
	{
		"city" : "Tomé-Açu",
		"admin_name" : "Pará",
		"lng" : -48.267625479102207,
		"lat" : -2.636125873946028
	},
	{
		"city" : "Tracuateua",
		"admin_name" : "Pará",
		"lng" : -46.933920555764473,
		"lat" : -1.024730243759943
	},
	{
		"city" : "Vigia",
		"admin_name" : "Pará",
		"lng" : -48.137989652932148,
		"lat" : -0.888180577912263
	},
	{
		"city" : "Viseu",
		"admin_name" : "Pará",
		"lng" : -46.455723393636596,
		"lat" : -1.531927877938892
	},
	{
		"city" : "Vitória do Xingu",
		"admin_name" : "Pará",
		"lng" : -51.973974243258631,
		"lat" : -3.135268236988453
	},
	{
		"city" : "São José do Peixe",
		"admin_name" : "Piauí",
		"lng" : -42.582321059592523,
		"lat" : -7.482427682643151
	},
	{
		"city" : "Campanha",
		"admin_name" : "Minas Gerais",
		"lng" : -45.408450807034207,
		"lat" : -21.843906334799946
	},
	{
		"city" : "Serra do Navio",
		"admin_name" : "Amapá",
		"lng" : -52.268138797670446,
		"lat" : 1.651747648505743
	},
	{
		"city" : "Amapá",
		"admin_name" : "Amapá",
		"lng" : -50.581370967764471,
		"lat" : 1.765499183066554
	},
	{
		"city" : "Pedra Branca do Amapari",
		"admin_name" : "Amapá",
		"lng" : -52.519564502833390,
		"lat" : 1.157614447804465
	},
	{
		"city" : "Calçoene",
		"admin_name" : "Amapá",
		"lng" : -51.403797891007201,
		"lat" : 2.431333607174134
	},
	{
		"city" : "Cutias",
		"admin_name" : "Amapá",
		"lng" : -50.487077124694416,
		"lat" : 1.035574039846592
	},
	{
		"city" : "Ferreira Gomes",
		"admin_name" : "Amapá",
		"lng" : -51.417351361795312,
		"lat" : 0.957104329665077
	},
	{
		"city" : "Itaubal",
		"admin_name" : "Amapá",
		"lng" : -50.640251077963079,
		"lat" : 0.538387977314164
	},
	{
		"city" : "Laranjal do Jari",
		"admin_name" : "Amapá",
		"lng" : -53.310545943142543,
		"lat" : 1.101363553380314
	},
	{
		"city" : "Angico",
		"admin_name" : "Tocantins",
		"lng" : -47.912952938793666,
		"lat" : -6.435605462246914
	},
	{
		"city" : "Aparecida do Rio Negro",
		"admin_name" : "Tocantins",
		"lng" : -48.000685041469993,
		"lat" : -9.987892297729283
	},
	{
		"city" : "Aragominas",
		"admin_name" : "Tocantins",
		"lng" : -48.633056600505192,
		"lat" : -6.946166727876048
	},
	{
		"city" : "Araguacema",
		"admin_name" : "Tocantins",
		"lng" : -49.504804890694437,
		"lat" : -8.939488252511154
	},
	{
		"city" : "Araguaçu",
		"admin_name" : "Tocantins",
		"lng" : -49.696349425982781,
		"lat" : -12.841140329454051
	},
	{
		"city" : "Araguaína",
		"admin_name" : "Tocantins",
		"lng" : -48.587839671402826,
		"lat" : -7.331667521315224
	},
	{
		"city" : "Araguanã",
		"admin_name" : "Tocantins",
		"lng" : -48.525270037449822,
		"lat" : -6.790978614934407
	},
	{
		"city" : "Araguatins",
		"admin_name" : "Tocantins",
		"lng" : -48.105842593754026,
		"lat" : -5.665569467929999
	},
	{
		"city" : "Arapoema",
		"admin_name" : "Tocantins",
		"lng" : -48.999844566888910,
		"lat" : -7.723303209448804
	},
	{
		"city" : "Arraias",
		"admin_name" : "Tocantins",
		"lng" : -47.047859531507264,
		"lat" : -12.818659697528020
	},
	{
		"city" : "Magalhães de Almeida",
		"admin_name" : "Maranhão",
		"lng" : -42.184618024747436,
		"lat" : -3.300504747530915
	},
	{
		"city" : "Augustinópolis",
		"admin_name" : "Tocantins",
		"lng" : -47.929068476949645,
		"lat" : -5.498179553492410
	},
	{
		"city" : "Aurora do Tocantins",
		"admin_name" : "Tocantins",
		"lng" : -46.418694039405359,
		"lat" : -12.642368389370677
	},
	{
		"city" : "Axixá do Tocantins",
		"admin_name" : "Tocantins",
		"lng" : -47.766382618537065,
		"lat" : -5.645644597077747
	},
	{
		"city" : "Maracaçumé",
		"admin_name" : "Maranhão",
		"lng" : -45.993963394017293,
		"lat" : -1.984270007178384
	},
	{
		"city" : "Marajá do Sena",
		"admin_name" : "Maranhão",
		"lng" : -45.628515996552807,
		"lat" : -4.705012343113720
	},
	{
		"city" : "Campestre",
		"admin_name" : "Minas Gerais",
		"lng" : -46.221487436551612,
		"lat" : -21.710404375207037
	},
	{
		"city" : "Babaçulândia",
		"admin_name" : "Tocantins",
		"lng" : -47.855766940992304,
		"lat" : -7.174858518759496
	},
	{
		"city" : "Bandeirantes do Tocantins",
		"admin_name" : "Tocantins",
		"lng" : -48.675585094723743,
		"lat" : -7.903734346093271
	},
	{
		"city" : "Barra do Ouro",
		"admin_name" : "Tocantins",
		"lng" : -47.578545777508062,
		"lat" : -7.717395339874347
	},
	{
		"city" : "Barrolândia",
		"admin_name" : "Tocantins",
		"lng" : -48.791669396821220,
		"lat" : -9.868981630322530
	},
	{
		"city" : "Bernardo Sayão",
		"admin_name" : "Tocantins",
		"lng" : -48.969067090705586,
		"lat" : -7.983246215343969
	},
	{
		"city" : "Bom Jesus do Tocantins",
		"admin_name" : "Tocantins",
		"lng" : -47.879216362699346,
		"lat" : -9.012758954018455
	},
	{
		"city" : "Brasilândia do Tocantins",
		"admin_name" : "Tocantins",
		"lng" : -48.442800411193090,
		"lat" : -8.290344870036705
	},
	{
		"city" : "Brejinho de Nazaré",
		"admin_name" : "Tocantins",
		"lng" : -48.625074600689373,
		"lat" : -11.029413219261608
	},
	{
		"city" : "Cachoeirinha",
		"admin_name" : "Tocantins",
		"lng" : -47.841499040816792,
		"lat" : -6.090445061684797
	},
	{
		"city" : "Campos Lindos",
		"admin_name" : "Tocantins",
		"lng" : -46.804410423857234,
		"lat" : -8.203492857966973
	},
	{
		"city" : "Cariri do Tocantins",
		"admin_name" : "Tocantins",
		"lng" : -49.203199360492334,
		"lat" : -11.933947119265264
	},
	{
		"city" : "São José do Piauí",
		"admin_name" : "Piauí",
		"lng" : -41.492714597327442,
		"lat" : -6.813384228964119
	},
	{
		"city" : "Campina Verde",
		"admin_name" : "Minas Gerais",
		"lng" : -49.810006454594500,
		"lat" : -19.479130070040824
	},
	{
		"city" : "Campo Azul",
		"admin_name" : "Minas Gerais",
		"lng" : -44.763321416759531,
		"lat" : -16.508750524736101
	},
	{
		"city" : "Campo Belo",
		"admin_name" : "Minas Gerais",
		"lng" : -45.255900698973477,
		"lat" : -20.919680146603408
	},
	{
		"city" : "Campo do Meio",
		"admin_name" : "Minas Gerais",
		"lng" : -45.849638087474013,
		"lat" : -21.113603123385850
	},
	{
		"city" : "Campo Florido",
		"admin_name" : "Minas Gerais",
		"lng" : -48.647836616782840,
		"lat" : -19.713413206752378
	},
	{
		"city" : "Campos Altos",
		"admin_name" : "Minas Gerais",
		"lng" : -46.197051268896608,
		"lat" : -19.604857695588084
	},
	{
		"city" : "Carmolândia",
		"admin_name" : "Tocantins",
		"lng" : -48.374990789380504,
		"lat" : -7.045562980514514
	},
	{
		"city" : "Carrasco Bonito",
		"admin_name" : "Tocantins",
		"lng" : -48.010695798635432,
		"lat" : -5.336370636437869
	},
	{
		"city" : "Caseara",
		"admin_name" : "Tocantins",
		"lng" : -49.848112548387910,
		"lat" : -9.400407222931761
	},
	{
		"city" : "Centenário",
		"admin_name" : "Tocantins",
		"lng" : -47.444986113867941,
		"lat" : -9.074048455408880
	},
	{
		"city" : "Chapada de Areia",
		"admin_name" : "Tocantins",
		"lng" : -49.196355283508609,
		"lat" : -10.165677979825547
	},
	{
		"city" : "Chapada da Natividade",
		"admin_name" : "Tocantins",
		"lng" : -47.846161367718047,
		"lat" : -11.541775192302730
	},
	{
		"city" : "Combinado",
		"admin_name" : "Tocantins",
		"lng" : -46.503684633130781,
		"lat" : -12.846530481811374
	},
	{
		"city" : "Conceição do Tocantins",
		"admin_name" : "Tocantins",
		"lng" : -47.303484069406004,
		"lat" : -12.169341165042788
	},
	{
		"city" : "Couto Magalhães",
		"admin_name" : "Tocantins",
		"lng" : -49.162543018465136,
		"lat" : -8.436896929463002
	},
	{
		"city" : "Cristalândia",
		"admin_name" : "Tocantins",
		"lng" : -49.313159524896882,
		"lat" : -10.637097445591357
	},
	{
		"city" : "Crixás do Tocantins",
		"admin_name" : "Tocantins",
		"lng" : -49.073922701573807,
		"lat" : -11.172635456929944
	},
	{
		"city" : "Darcinópolis",
		"admin_name" : "Tocantins",
		"lng" : -47.768431286561935,
		"lat" : -6.762912995043457
	},
	{
		"city" : "Dianópolis",
		"admin_name" : "Tocantins",
		"lng" : -46.808933674769854,
		"lat" : -11.700227525215187
	},
	{
		"city" : "Divinópolis do Tocantins",
		"admin_name" : "Tocantins",
		"lng" : -49.354831548292516,
		"lat" : -9.694845641537436
	},
	{
		"city" : "Dois Irmãos do Tocantins",
		"admin_name" : "Tocantins",
		"lng" : -49.066598193650748,
		"lat" : -9.271342909046190
	},
	{
		"city" : "Dueré",
		"admin_name" : "Tocantins",
		"lng" : -49.390746785007238,
		"lat" : -11.428518774842908
	},
	{
		"city" : "Campos Gerais",
		"admin_name" : "Minas Gerais",
		"lng" : -45.753586748549068,
		"lat" : -21.258848280896981
	},
	{
		"city" : "Canaã",
		"admin_name" : "Minas Gerais",
		"lng" : -42.621833719330873,
		"lat" : -20.666799582882192
	},
	{
		"city" : "Canápolis",
		"admin_name" : "Minas Gerais",
		"lng" : -49.272630416773914,
		"lat" : -18.758136843560436
	},
	{
		"city" : "Cana Verde",
		"admin_name" : "Minas Gerais",
		"lng" : -45.185707204198224,
		"lat" : -21.033110886853763
	},
	{
		"city" : "Candeias",
		"admin_name" : "Minas Gerais",
		"lng" : -45.279578271346423,
		"lat" : -20.748495741988624
	},
	{
		"city" : "Cantagalo",
		"admin_name" : "Minas Gerais",
		"lng" : -42.648697061984763,
		"lat" : -18.516132270137085
	},
	{
		"city" : "Caparaó",
		"admin_name" : "Minas Gerais",
		"lng" : -41.949506881926638,
		"lat" : -20.527214189133606
	},
	{
		"city" : "Fátima",
		"admin_name" : "Tocantins",
		"lng" : -48.874541377090615,
		"lat" : -10.809467820468534
	},
	{
		"city" : "Figueirópolis",
		"admin_name" : "Tocantins",
		"lng" : -49.283119079550175,
		"lat" : -12.264272318620559
	},
	{
		"city" : "Filadélfia",
		"admin_name" : "Tocantins",
		"lng" : -47.793859574113014,
		"lat" : -7.496845198884449
	},
	{
		"city" : "Formoso do Araguaia",
		"admin_name" : "Tocantins",
		"lng" : -50.098113434473809,
		"lat" : -11.958998829867966
	},
	{
		"city" : "Fortaleza do Tabocão",
		"admin_name" : "Tocantins",
		"lng" : -48.545428192143433,
		"lat" : -9.072373688259626
	},
	{
		"city" : "Goianorte",
		"admin_name" : "Tocantins",
		"lng" : -49.009916793117512,
		"lat" : -8.873890591771362
	},
	{
		"city" : "Goiatins",
		"admin_name" : "Tocantins",
		"lng" : -47.481185873932240,
		"lat" : -8.093771691510488
	},
	{
		"city" : "Guaraí",
		"admin_name" : "Tocantins",
		"lng" : -48.441497526139393,
		"lat" : -8.738874191819152
	},
	{
		"city" : "Gurupi",
		"admin_name" : "Tocantins",
		"lng" : -48.886641347249913,
		"lat" : -11.652059575133862
	},
	{
		"city" : "Capela Nova",
		"admin_name" : "Minas Gerais",
		"lng" : -43.608609925547178,
		"lat" : -20.917334858287333
	},
	{
		"city" : "Capelinha",
		"admin_name" : "Minas Gerais",
		"lng" : -42.491952152362295,
		"lat" : -17.692882490615798
	},
	{
		"city" : "Capetinga",
		"admin_name" : "Minas Gerais",
		"lng" : -47.031789809871483,
		"lat" : -20.657294037427903
	},
	{
		"city" : "Capim Branco",
		"admin_name" : "Minas Gerais",
		"lng" : -44.167699272333522,
		"lat" : -19.570064023633147
	},
	{
		"city" : "Capinópolis",
		"admin_name" : "Minas Gerais",
		"lng" : -49.597533954698008,
		"lat" : -18.690798473908863
	},
	{
		"city" : "Capitão Andrade",
		"admin_name" : "Minas Gerais",
		"lng" : -41.822159179185931,
		"lat" : -19.051197489100051
	},
	{
		"city" : "Ipueiras",
		"admin_name" : "Tocantins",
		"lng" : -48.404196454561024,
		"lat" : -11.136174647273744
	},
	{
		"city" : "Itacajá",
		"admin_name" : "Tocantins",
		"lng" : -47.669023250370564,
		"lat" : -8.571259823562828
	},
	{
		"city" : "São Julião",
		"admin_name" : "Piauí",
		"lng" : -40.820608482476906,
		"lat" : -7.081570349286038
	},
	{
		"city" : "Itaguatins",
		"admin_name" : "Tocantins",
		"lng" : -47.596597208737947,
		"lat" : -5.803758240833570
	},
	{
		"city" : "Itapiratins",
		"admin_name" : "Tocantins",
		"lng" : -48.033026323300426,
		"lat" : -8.316481716436501
	},
	{
		"city" : "Itaporã do Tocantins",
		"admin_name" : "Tocantins",
		"lng" : -48.752137716359613,
		"lat" : -8.451459610435828
	},
	{
		"city" : "Jaú do Tocantins",
		"admin_name" : "Tocantins",
		"lng" : -48.645918765032256,
		"lat" : -12.748158897980897
	},
	{
		"city" : "São Sebastião do Tocantins",
		"admin_name" : "Tocantins",
		"lng" : -48.331901794549736,
		"lat" : -5.240596446061236
	},
	{
		"city" : "São Valério",
		"admin_name" : "Tocantins",
		"lng" : -48.170553081856411,
		"lat" : -11.804201928902421
	},
	{
		"city" : "Capitão Enéas",
		"admin_name" : "Minas Gerais",
		"lng" : -43.664659679861259,
		"lat" : -16.136242180363830
	},
	{
		"city" : "Capitólio",
		"admin_name" : "Minas Gerais",
		"lng" : -46.144191796147211,
		"lat" : -20.612656861850272
	},
	{
		"city" : "Caputira",
		"admin_name" : "Minas Gerais",
		"lng" : -42.252309957500906,
		"lat" : -20.176478848680397
	},
	{
		"city" : "Caraí",
		"admin_name" : "Minas Gerais",
		"lng" : -41.583521856377601,
		"lat" : -17.173580606911116
	},
	{
		"city" : "Juarina",
		"admin_name" : "Tocantins",
		"lng" : -49.110583320550894,
		"lat" : -8.140408798719152
	},
	{
		"city" : "Lagoa da Confusão",
		"admin_name" : "Tocantins",
		"lng" : -50.160443789508761,
		"lat" : -11.036065898580187
	},
	{
		"city" : "Lagoa do Tocantins",
		"admin_name" : "Tocantins",
		"lng" : -47.481602113885003,
		"lat" : -10.342013533084334
	},
	{
		"city" : "Caranaíba",
		"admin_name" : "Minas Gerais",
		"lng" : -43.720703213388973,
		"lat" : -20.891210675366384
	},
	{
		"city" : "Carandaí",
		"admin_name" : "Minas Gerais",
		"lng" : -43.844340613573543,
		"lat" : -20.996681552172323
	},
	{
		"city" : "Lajeado",
		"admin_name" : "Tocantins",
		"lng" : -48.290079235463857,
		"lat" : -9.848515140795161
	},
	{
		"city" : "Lavandeira",
		"admin_name" : "Tocantins",
		"lng" : -46.394839361384314,
		"lat" : -12.820308176568522
	},
	{
		"city" : "Lizarda",
		"admin_name" : "Tocantins",
		"lng" : -46.938855679241655,
		"lat" : -9.525359536705368
	},
	{
		"city" : "Sítio Novo do Tocantins",
		"admin_name" : "Tocantins",
		"lng" : -47.686443837484049,
		"lat" : -5.629895759380128
	},
	{
		"city" : "Luzinópolis",
		"admin_name" : "Tocantins",
		"lng" : -47.830448449481032,
		"lat" : -6.206364009280133
	},
	{
		"city" : "Marianópolis do Tocantins",
		"admin_name" : "Tocantins",
		"lng" : -49.699889326811238,
		"lat" : -9.787642731481933
	},
	{
		"city" : "Mateiros",
		"admin_name" : "Tocantins",
		"lng" : -46.501213927318155,
		"lat" : -10.576165680524817
	},
	{
		"city" : "Sucupira",
		"admin_name" : "Tocantins",
		"lng" : -48.834936647647503,
		"lat" : -12.113452253086653
	},
	{
		"city" : "Taguatinga",
		"admin_name" : "Tocantins",
		"lng" : -46.555790338469706,
		"lat" : -12.387064587494718
	},
	{
		"city" : "Taipas do Tocantins",
		"admin_name" : "Tocantins",
		"lng" : -46.994628913844650,
		"lat" : -12.140048826879312
	},
	{
		"city" : "Talismã",
		"admin_name" : "Tocantins",
		"lng" : -49.048335154725329,
		"lat" : -12.682968586778907
	},
	{
		"city" : "Palmas",
		"admin_name" : "Tocantins",
		"lng" : -48.153756972850047,
		"lat" : -10.218483584624485
	},
	{
		"city" : "Tocantínia",
		"admin_name" : "Tocantins",
		"lng" : -48.140379391977760,
		"lat" : -9.603080733745498
	},
	{
		"city" : "Carangola",
		"admin_name" : "Minas Gerais",
		"lng" : -42.087521832803773,
		"lat" : -20.702657638723238
	},
	{
		"city" : "Carbonita",
		"admin_name" : "Minas Gerais",
		"lng" : -43.057711646546295,
		"lat" : -17.494130053513064
	},
	{
		"city" : "Careaçu",
		"admin_name" : "Minas Gerais",
		"lng" : -45.664419352118557,
		"lat" : -22.078619958706856
	},
	{
		"city" : "Carlos Chagas",
		"admin_name" : "Minas Gerais",
		"lng" : -40.842006038024053,
		"lat" : -17.674179941984264
	},
	{
		"city" : "Carmésia",
		"admin_name" : "Minas Gerais",
		"lng" : -43.174440665402628,
		"lat" : -19.060346504500803
	},
	{
		"city" : "Carmo da Cachoeira",
		"admin_name" : "Minas Gerais",
		"lng" : -45.196434133501434,
		"lat" : -21.453963707112365
	},
	{
		"city" : "Carmo da Mata",
		"admin_name" : "Minas Gerais",
		"lng" : -44.891823800937637,
		"lat" : -20.559671941131686
	},
	{
		"city" : "Carmo de Minas",
		"admin_name" : "Minas Gerais",
		"lng" : -45.161509131422555,
		"lat" : -22.091998279356254
	},
	{
		"city" : "Carmo do Cajuru",
		"admin_name" : "Minas Gerais",
		"lng" : -44.701149947970606,
		"lat" : -20.196476491505884
	},
	{
		"city" : "Carmo do Paranaíba",
		"admin_name" : "Minas Gerais",
		"lng" : -46.185184701310654,
		"lat" : -18.907661444231366
	},
	{
		"city" : "Maurilândia do Tocantins",
		"admin_name" : "Tocantins",
		"lng" : -47.589750794791513,
		"lat" : -6.024271804236194
	},
	{
		"city" : "Miracema do Tocantins",
		"admin_name" : "Tocantins",
		"lng" : -48.551378563391580,
		"lat" : -9.754026803371435
	},
	{
		"city" : "Miranorte",
		"admin_name" : "Tocantins",
		"lng" : -48.683041062229393,
		"lat" : -9.417075747584278
	},
	{
		"city" : "Monte do Carmo",
		"admin_name" : "Tocantins",
		"lng" : -48.017263450430420,
		"lat" : -10.748398516791271
	},